[
  {
    "id": 1,
    "name": "De Drie Graefjes",
    "lat": 52.36837,
    "lng": 4.89211,
    "area": "Centrum",
    "facing": "S",
    "capacity": "M",
    "vibe": "Canal-side classic",
    "address": "Rokin 62",
    "verified": true,
    "coordSource": "places_api",
    "verifiedAt": "2026-05-02T11:36:24.573Z",
    "placeId": "ChIJA7BYT8AJxkcRDGbCFq5tWrs"
  },
  {
    "id": 2,
    "name": "Café de Jaren",
    "lat": 52.36807,
    "lng": 4.89542,
    "area": "Centrum",
    "facing": "SW",
    "capacity": "L",
    "vibe": "Waterside terrace",
    "address": "Nieuwe Doelenstraat 20",
    "verified": true,
    "coordSource": "places_api",
    "verifiedAt": "2026-05-02T11:36:25.014Z",
    "placeId": "ChIJoa4hjb8JxkcRehItw0EaWz8"
  },
  {
    "id": 3,
    "name": "Café Luxembourg",
    "lat": 52.36866,
    "lng": 4.88871,
    "area": "Centrum",
    "facing": "SW",
    "capacity": "L",
    "vibe": "Grand café",
    "address": "Spui 24",
    "verified": true,
    "coordSource": "places_api",
    "verifiedAt": "2026-05-02T11:36:25.395Z",
    "placeId": "ChIJxQDBj8EJxkcRtymFU-erjXg"
  },
  {
    "id": 4,
    "name": "In de Waag",
    "lat": 52.37271,
    "lng": 4.9004,
    "area": "Centrum",
    "facing": "All",
    "capacity": "L",
    "vibe": "Medieval tower",
    "address": "Nieuwmarkt 4",
    "verified": true,
    "coordSource": "places_api",
    "verifiedAt": "2026-05-02T11:36:25.857Z",
    "placeId": "ChIJVR5Sl74JxkcRPvBLwwIgPmA"
  },
  {
    "id": 5,
    "name": "Café Fonteyn",
    "lat": 52.37236,
    "lng": 4.90091,
    "area": "Centrum",
    "facing": "W",
    "capacity": "M",
    "vibe": "Nieuwmarkt terrace",
    "address": "Nieuwmarkt 13",
    "verified": true,
    "coordSource": "places_api",
    "verifiedAt": "2026-05-02T11:36:26.224Z",
    "placeId": "ChIJYUEzRrkJxkcRbecAPkzwvYU"
  },
  {
    "id": 7,
    "name": "De Bakkerswinkel",
    "lat": 52.37509,
    "lng": 4.89794,
    "area": "Centrum",
    "facing": "S",
    "capacity": "M",
    "vibe": "Bakery café",
    "address": "Warmoesstraat 69",
    "verified": true,
    "coordSource": "places_api",
    "verifiedAt": "2026-05-02T11:36:26.573Z",
    "placeId": "ChIJWV90XbgJxkcRW73F8XOctnk",
    "category": [
      "coffee"
    ],
    "googleRating": 4.6,
    "googleReviewCount": 1117
  },
  {
    "id": 8,
    "name": "Greenwoods",
    "lat": 52.3758,
    "lng": 4.8913,
    "area": "Centrum",
    "facing": "SE",
    "capacity": "S",
    "vibe": "British tearoom",
    "address": "Singel 103",
    "verified": true,
    "coordSource": "places_api",
    "verifiedAt": "2026-05-02T11:36:26.924Z",
    "placeId": "ChIJk6EAQsYJxkcRlqpS70FIz_w",
    "category": [
      "coffee"
    ],
    "googleRating": 4.6,
    "googleReviewCount": 5263
  },
  {
    "id": 9,
    "name": "Café Bern",
    "lat": 52.37251,
    "lng": 4.90098,
    "area": "Centrum",
    "facing": "E",
    "capacity": "S",
    "vibe": "Swiss fondue",
    "address": "Nieuwmarkt 9",
    "verified": true,
    "coordSource": "places_api",
    "verifiedAt": "2026-05-02T11:36:27.307Z",
    "placeId": "ChIJ5RJMhJw5ZUER2c4TUSO2Z_A"
  },
  {
    "id": 10,
    "name": "Kapitein Zeppos",
    "lat": 52.36965,
    "lng": 4.89373,
    "area": "Centrum",
    "facing": "S",
    "capacity": "M",
    "vibe": "Hidden alley",
    "address": "Gebed Zonder End 5",
    "verified": true,
    "coordSource": "places_api",
    "verifiedAt": "2026-05-02T11:36:27.689Z",
    "placeId": "ChIJtTMtisAJxkcRk6JmL5ykjNE"
  },
  {
    "id": 11,
    "name": "Tales & Spirits",
    "lat": 52.37613,
    "lng": 4.89172,
    "area": "Centrum",
    "facing": "S",
    "capacity": "S",
    "vibe": "Cocktail terrace",
    "address": "Lijnbaanssteeg 5",
    "verified": true,
    "coordSource": "places_api",
    "verifiedAt": "2026-05-02T11:36:28.157Z",
    "placeId": "ChIJryiJR8YJxkcRiuKFuaNjjsw"
  },
  {
    "id": 13,
    "name": "SkyLounge",
    "lat": 52.37657,
    "lng": 4.90545,
    "area": "Centrum",
    "facing": "All",
    "capacity": "M",
    "vibe": "Rooftop panoramic",
    "address": "Oosterdoksstraat 4",
    "verified": true,
    "coordSource": "places_api",
    "verifiedAt": "2026-05-02T11:36:28.54Z",
    "placeId": "ChIJ3X7KShgJxkcRNJ6P783NB88"
  },
  {
    "id": 14,
    "name": "Café de Dokter",
    "lat": 52.36925,
    "lng": 4.89081,
    "area": "Centrum",
    "facing": "W",
    "capacity": "S",
    "vibe": "Tiny classic",
    "address": "Rozenboomsteeg 4",
    "verified": true,
    "coordSource": "places_api",
    "verifiedAt": "2026-05-02T11:36:28.89Z",
    "placeId": "ChIJ4TgZpsEJxkcRAXqk2eVrggk"
  },
  {
    "id": 15,
    "name": "Café Het Schuim",
    "lat": 52.372,
    "lng": 4.88963,
    "area": "Centrum",
    "facing": "E",
    "capacity": "S",
    "vibe": "Art café",
    "address": "Spuistraat 189",
    "verified": true,
    "coordSource": "places_api",
    "verifiedAt": "2026-05-02T11:36:29.323Z",
    "placeId": "ChIJTxF9UsEJxkcR0CrdTTcgcUs"
  },
  {
    "id": 16,
    "name": "Blauw aan de Wal",
    "lat": 52.37232,
    "lng": 4.89848,
    "area": "Centrum",
    "facing": "S",
    "capacity": "S",
    "vibe": "Fine dining",
    "address": "Oudezijds Achterburgwal 99",
    "verified": true,
    "coordSource": "places_api",
    "verifiedAt": "2026-05-02T11:36:29.689Z",
    "placeId": "ChIJuzUo0LgJxkcRnWs1ttkiKA4"
  },
  {
    "id": 17,
    "name": "NRC Restaurant",
    "lat": 52.367379799999995,
    "lng": 4.8944062,
    "area": "Centrum",
    "facing": "SW",
    "capacity": "M",
    "vibe": "Newspaper bldg",
    "address": "Nieuwe Doelenstraat 4",
    "verified": true,
    "coordSource": "places_api",
    "verifiedAt": "2026-05-02T11:36:30.09Z",
    "placeId": "ChIJfZH2DsAJxkcRDuCPJeAvw9I"
  },
  {
    "id": 18,
    "name": "Café Karpershoek",
    "lat": 52.37819,
    "lng": 4.89672,
    "area": "Centrum",
    "facing": "N",
    "capacity": "S",
    "vibe": "Oldest bar",
    "address": "Martelaarsgracht 2",
    "verified": true,
    "coordSource": "places_api",
    "verifiedAt": "2026-05-02T11:36:30.44Z",
    "placeId": "ChIJHzJL4rcJxkcR2lG19jD66D4"
  },
  {
    "id": 19,
    "name": "De Sluyswacht",
    "lat": 52.36987,
    "lng": 4.90172,
    "area": "Centrum",
    "facing": "SW",
    "capacity": "S",
    "vibe": "Waterside lock",
    "address": "Jodenbreestraat 1",
    "verified": true,
    "coordSource": "places_api",
    "verifiedAt": "2026-05-02T11:36:30.806Z",
    "placeId": "ChIJzccHg74JxkcRufHICkn86wo"
  },
  {
    "id": 20,
    "name": "Café Belgique",
    "lat": 52.37433,
    "lng": 4.89309,
    "area": "Centrum",
    "facing": "W",
    "capacity": "S",
    "vibe": "Belgian beers",
    "address": "Gravenstraat 2",
    "verified": true,
    "coordSource": "places_api",
    "verifiedAt": "2026-05-02T11:36:31.157Z",
    "placeId": "ChIJXT9DBMcJxkcR2thaZfmZvdA"
  },
  {
    "id": 21,
    "name": "De Drie Fleschjes",
    "lat": 52.37428,
    "lng": 4.89231,
    "area": "Centrum",
    "facing": "E",
    "capacity": "S",
    "vibe": "Tasting room",
    "address": "Gravenstraat 18",
    "verified": true,
    "coordSource": "places_api",
    "verifiedAt": "2026-05-02T11:36:31.507Z",
    "placeId": "ChIJDU_4_MYJxkcRvQZkM49uQUk"
  },
  {
    "id": 22,
    "name": "Wynand Fockink",
    "lat": 52.37231,
    "lng": 4.89533,
    "area": "Centrum",
    "facing": "S",
    "capacity": "S",
    "vibe": "Historic distillery",
    "address": "Pijlsteeg 31",
    "verified": true,
    "coordSource": "places_api",
    "verifiedAt": "2026-05-02T11:36:31.858Z",
    "placeId": "ChIJ_1DTVccJxkcRDttrB9MqOLc"
  },
  {
    "id": 23,
    "name": "De Bekeerde Suster",
    "lat": 52.37206,
    "lng": 4.89923,
    "area": "Centrum",
    "facing": "S",
    "capacity": "M",
    "vibe": "Brewery terrace",
    "address": "Kloveniersburgwal 6",
    "verified": true,
    "coordSource": "places_api",
    "verifiedAt": "2026-05-02T11:36:32.207Z",
    "placeId": "ChIJAwdCLLkJxkcRFdfSU_U6Ihw"
  },
  {
    "id": 24,
    "name": "Café Koosje",
    "lat": 52.36664,
    "lng": 4.91165,
    "area": "Centrum",
    "facing": "W",
    "capacity": "S",
    "vibe": "Rokin terrace",
    "address": "Rokin 88",
    "verified": true,
    "coordSource": "places_api",
    "verifiedAt": "2026-05-02T11:36:32.556Z",
    "placeId": "ChIJFatVe6IJxkcRDR7l-nLfHPI"
  },
  {
    "id": 25,
    "name": "Café de Engelbewaarder",
    "lat": 52.37025,
    "lng": 4.89842,
    "area": "Centrum",
    "facing": "S",
    "capacity": "S",
    "vibe": "Jazz café",
    "address": "Kloveniersburgwal 59",
    "verified": true,
    "coordSource": "places_api",
    "verifiedAt": "2026-05-02T11:36:32.939Z",
    "placeId": "ChIJrwlpHr8JxkcR1QZJyOGSiMI"
  },
  {
    "id": 26,
    "name": "Café de Doelen",
    "lat": 52.36838,
    "lng": 4.89673,
    "area": "Centrum",
    "facing": "S",
    "capacity": "M",
    "vibe": "Classic terrace",
    "address": "Kloveniersburgwal 125",
    "verified": true,
    "coordSource": "places_api",
    "verifiedAt": "2026-05-02T11:36:33.323Z",
    "placeId": "ChIJvUexvb8JxkcR3qla0L1s8sc"
  },
  {
    "id": 27,
    "name": "Dwaze Zaken",
    "lat": 52.37654,
    "lng": 4.89932,
    "area": "Centrum",
    "facing": "S",
    "capacity": "M",
    "vibe": "Dam views",
    "address": "Prins Hendrikkade 50",
    "verified": true,
    "coordSource": "places_api",
    "verifiedAt": "2026-05-02T11:36:33.674Z",
    "placeId": "ChIJEZjpLbgJxkcRJg3H6RewsYE"
  },
  {
    "id": 28,
    "name": "Café Brix",
    "lat": 52.383175699999995,
    "lng": 4.8865133,
    "area": "Centrum",
    "facing": "SE",
    "capacity": "S",
    "vibe": "Haarlemmer gem",
    "address": "Haarlemmerdijk 108",
    "verified": true,
    "coordSource": "places_api",
    "verifiedAt": "2026-05-02T11:36:34.04Z",
    "placeId": "ChIJ0ZDLaesJxkcRmb6mc0uKHAc"
  },
  {
    "id": 29,
    "name": "De Vergulden Eenhoorn",
    "lat": 52.35104,
    "lng": 4.92074,
    "area": "Centrum",
    "facing": "S",
    "capacity": "S",
    "vibe": "City farm",
    "address": "Polderweg 180",
    "verified": true,
    "coordSource": "places_api",
    "verifiedAt": "2026-05-02T11:36:34.391Z",
    "placeId": "ChIJWWjb6HgJxkcRCQhrq9E2NM8"
  },
  {
    "id": 30,
    "name": "Loetje Centraal",
    "lat": 52.3776,
    "lng": 4.9002,
    "area": "Centrum",
    "facing": "S",
    "capacity": "M",
    "vibe": "Station waterside",
    "address": "Stationsplein 10",
    "verified": true,
    "coordSource": "places_api",
    "verifiedAt": "2026-05-02T11:36:34.774Z",
    "placeId": "ChIJmUBwebcJxkcRKEAhRrFAeeY"
  },
  {
    "id": 31,
    "name": "Café Americain",
    "lat": 52.36383,
    "lng": 4.88154,
    "area": "Leidseplein",
    "facing": "SW",
    "capacity": "L",
    "vibe": "Grand café",
    "address": "Leidsekade 97",
    "verified": true,
    "coordSource": "places_api",
    "verifiedAt": "2026-05-02T11:36:35.14Z",
    "placeId": "ChIJhd_mnOgJxkcR7oNxp_ZYz6U"
  },
  {
    "id": 32,
    "name": "Door74",
    "lat": 52.36594,
    "lng": 4.8936,
    "area": "Centrum",
    "facing": "S",
    "capacity": "S",
    "vibe": "Speakeasy cocktails",
    "address": "Reguliersdwarsstraat 74",
    "verified": true,
    "coordSource": "places_api",
    "verifiedAt": "2026-05-02T11:36:35.49Z",
    "placeId": "ChIJswl2sOoJxkcR8VOtTz4vkB0"
  },
  {
    "id": 33,
    "name": "Dante Kitchen & Bar",
    "lat": 52.36915,
    "lng": 4.88859,
    "area": "Centrum",
    "facing": "S",
    "capacity": "M",
    "vibe": "Italian terrace",
    "address": "Spuistraat 320",
    "verified": true,
    "coordSource": "places_api",
    "verifiedAt": "2026-05-02T11:36:35.856Z",
    "placeId": "ChIJIYNYhsEJxkcRsQH6V4pDdg4"
  },
  {
    "id": 34,
    "name": "Café de Kring",
    "lat": 52.36359,
    "lng": 4.88355,
    "area": "Centrum",
    "facing": "S",
    "capacity": "S",
    "vibe": "Artist club",
    "address": "Kleine Gartmanplantsoen 7",
    "verified": true,
    "coordSource": "places_api",
    "verifiedAt": "2026-05-02T11:36:36.258Z",
    "placeId": "ChIJnXFV2egJxkcRa9Gnd85GKbY"
  },
  {
    "id": 36,
    "name": "Café Katoen",
    "lat": 52.36777,
    "lng": 4.89415,
    "area": "Centrum",
    "facing": "S",
    "capacity": "S",
    "vibe": "Terrace Turfmarkt",
    "address": "Oude Turfmarkt 146",
    "verified": true,
    "coordSource": "places_api",
    "verifiedAt": "2026-05-02T11:36:36.991Z",
    "placeId": "ChIJYW91DsAJxkcRDWAEbAoSEXY"
  },
  {
    "id": 37,
    "name": "Café Langereis",
    "lat": 52.36613,
    "lng": 4.90014,
    "area": "Centrum",
    "facing": "S",
    "capacity": "S",
    "vibe": "Amstel terrace",
    "address": "Amstel 202",
    "verified": true,
    "coordSource": "places_api",
    "verifiedAt": "2026-05-02T11:36:37.357Z",
    "placeId": "ChIJZcjK8JUJxkcRstbgS2u0_dY",
    "category": [
      "coffee"
    ],
    "googleRating": 4.5,
    "googleReviewCount": 996
  },
  {
    "id": 38,
    "name": "Café de Kroon",
    "lat": 52.36645,
    "lng": 4.89664,
    "area": "Rembrandtplein",
    "facing": "W",
    "capacity": "M",
    "vibe": "Square views",
    "address": "Rembrandtplein 17",
    "verified": true,
    "coordSource": "places_api",
    "verifiedAt": "2026-05-02T11:36:37.741Z",
    "placeId": "ChIJiQZfe5UJxkcR48yyAwARZ_E"
  },
  {
    "id": 39,
    "name": "De Nachtwacht",
    "lat": 52.36569,
    "lng": 4.89546,
    "area": "Rembrandtplein",
    "facing": "S",
    "capacity": "M",
    "vibe": "Famous terrace",
    "address": "Rembrandtplein 1",
    "verified": true,
    "coordSource": "places_api",
    "verifiedAt": "2026-05-02T11:36:38.101Z",
    "placeId": "ChIJE6cZRJUJxkcR9vsN8GzeVzk"
  },
  {
    "id": 40,
    "name": "Escape Café",
    "lat": 52.36639,
    "lng": 4.89639,
    "area": "Rembrandtplein",
    "facing": "S",
    "capacity": "L",
    "vibe": "Club terrace",
    "address": "Rembrandtplein 11",
    "verified": true,
    "coordSource": "places_api",
    "verifiedAt": "2026-05-02T11:36:38.49Z",
    "placeId": "ChIJB7T9YJUJxkcR8dtTreJe6Zo"
  },
  {
    "id": 41,
    "name": "Café Leentje",
    "lat": 52.3655,
    "lng": 4.89604,
    "area": "Rembrandtplein",
    "facing": "S",
    "capacity": "S",
    "vibe": "Thorbeckeplein",
    "address": "Thorbeckeplein 3",
    "verified": true,
    "coordSource": "places_api",
    "verifiedAt": "2026-05-02T11:36:38.856Z",
    "placeId": "ChIJxdW-U1cJxkcREfNCvLtYBQ0"
  },
  {
    "id": 42,
    "name": "Café Winkel 43",
    "lat": 52.37909,
    "lng": 4.88628,
    "area": "Jordaan",
    "facing": "W",
    "capacity": "M",
    "vibe": "Apple pie fame",
    "address": "Noordermarkt 43",
    "verified": true,
    "coordSource": "places_api",
    "verifiedAt": "2026-05-02T11:36:39.273Z",
    "placeId": "ChIJAUBsos8JxkcRwnuLcQmb2-M"
  },
  {
    "id": 43,
    "name": "Café Thijssen",
    "lat": 52.38081,
    "lng": 4.8873,
    "area": "Jordaan",
    "facing": "E",
    "capacity": "S",
    "vibe": "Neighbourhood",
    "address": "Brouwersgracht 107",
    "verified": true,
    "coordSource": "places_api",
    "verifiedAt": "2026-05-02T11:36:39.624Z",
    "placeId": "ChIJNQGt-c4JxkcRqmwL9rEToYI"
  },
  {
    "id": 45,
    "name": "Café Papeneiland",
    "lat": 52.38046,
    "lng": 4.88797,
    "area": "Jordaan",
    "facing": "NW",
    "capacity": "S",
    "vibe": "1642 landmark",
    "address": "Prinsengracht 2",
    "verified": true,
    "coordSource": "places_api",
    "verifiedAt": "2026-05-02T11:36:40.008Z",
    "placeId": "ChIJISRM4s4JxkcR7cdxqCceLrc"
  },
  {
    "id": 46,
    "name": "Café Nol",
    "lat": 52.37829,
    "lng": 4.88339,
    "area": "Jordaan",
    "facing": "W",
    "capacity": "S",
    "vibe": "Singing café",
    "address": "Westerstraat 109",
    "verified": true,
    "coordSource": "places_api",
    "verifiedAt": "2026-05-02T11:36:40.374Z",
    "placeId": "ChIJI0VM_M8JxkcRhtGIFC__fmU"
  },
  {
    "id": 47,
    "name": "De Reiger",
    "lat": 52.37574,
    "lng": 4.88265,
    "area": "Jordaan",
    "facing": "S",
    "capacity": "M",
    "vibe": "Bruin café",
    "address": "Nieuwe Leliestraat 34",
    "verified": true,
    "coordSource": "places_api",
    "verifiedAt": "2026-05-02T11:36:40.74Z",
    "placeId": "ChIJT0DD4doJxkcRAKSrXeQjixs"
  },
  {
    "id": 48,
    "name": "Café Chris",
    "lat": 52.37428,
    "lng": 4.88161,
    "area": "Jordaan",
    "facing": "S",
    "capacity": "S",
    "vibe": "Oldest Jordaan",
    "address": "Bloemstraat 42",
    "verified": true,
    "coordSource": "places_api",
    "verifiedAt": "2026-05-02T11:36:41.101Z",
    "placeId": "ChIJp8WKOdsJxkcRVL-xZ7kdT60"
  },
  {
    "id": 49,
    "name": "Café Saarein",
    "lat": 52.37028,
    "lng": 4.88024,
    "area": "Jordaan",
    "facing": "E",
    "capacity": "S",
    "vibe": "Cozy eetcafé",
    "address": "Elandsstraat 119",
    "verified": true,
    "coordSource": "places_api",
    "verifiedAt": "2026-05-02T11:36:41.457Z",
    "placeId": "ChIJUVb-3dwJxkcRRC5R3bS_--Q"
  },
  {
    "id": 50,
    "name": "Café Soundgarden",
    "lat": 52.37292,
    "lng": 4.87574,
    "area": "Jordaan",
    "facing": "S",
    "capacity": "S",
    "vibe": "Rock bar",
    "address": "Marnixstraat 164",
    "verified": true,
    "coordSource": "places_api",
    "verifiedAt": "2026-05-02T11:36:41.824Z",
    "placeId": "ChIJmV4L_9sJxkcRhi_Tq6OeeRE"
  },
  {
    "id": 51,
    "name": "La Perla",
    "lat": 52.37703,
    "lng": 4.88201,
    "area": "Jordaan",
    "facing": "S",
    "capacity": "S",
    "vibe": "Pizza terrace",
    "address": "Tweede Tuindwarsstraat 53",
    "verified": true,
    "coordSource": "places_api",
    "verifiedAt": "2026-05-02T11:36:42.19Z",
    "placeId": "ChIJB8x7vNoJxkcRB_tJJdcvNsc"
  },
  {
    "id": 52,
    "name": "Festina Lente",
    "lat": 52.36865,
    "lng": 4.88139,
    "area": "Jordaan",
    "facing": "SW",
    "capacity": "S",
    "vibe": "Canal reading",
    "address": "Looiersgracht 40b",
    "verified": true,
    "coordSource": "places_api",
    "verifiedAt": "2026-05-02T11:36:42.557Z",
    "placeId": "ChIJt18aNd0JxkcRHaAyLgQ5y-8"
  },
  {
    "id": 53,
    "name": "Café de Tuin",
    "lat": 52.37721,
    "lng": 4.88193,
    "area": "Jordaan",
    "facing": "SW",
    "capacity": "M",
    "vibe": "Garden square",
    "address": "Tweede Tuindwarsstraat 13",
    "verified": true,
    "coordSource": "places_api",
    "verifiedAt": "2026-05-02T11:36:42.94Z",
    "placeId": "ChIJvcGfvNoJxkcRuEDjBok_tyw"
  },
  {
    "id": 54,
    "name": "Small World Catering",
    "lat": 52.38226,
    "lng": 4.88704,
    "area": "Jordaan",
    "facing": "W",
    "capacity": "S",
    "vibe": "Tiny & mighty",
    "address": "Binnen Oranjestraat 14",
    "verified": true,
    "coordSource": "places_api",
    "verifiedAt": "2026-05-02T11:36:43.341Z",
    "placeId": "ChIJv_AWY84JxkcRKXiMh0aa1H8"
  },
  {
    "id": 56,
    "name": "De Blaffende Vis",
    "lat": 52.37853,
    "lng": 4.88329,
    "area": "Jordaan",
    "facing": "E",
    "capacity": "S",
    "vibe": "Quirky corner",
    "address": "Westerstraat 118",
    "verified": true,
    "coordSource": "places_api",
    "verifiedAt": "2026-05-02T11:36:43.691Z",
    "placeId": "ChIJVb-u4s8JxkcRcUjnJhjzILs"
  },
  {
    "id": 57,
    "name": "Twee Prinsen",
    "lat": 52.37789,
    "lng": 4.88648,
    "area": "Jordaan",
    "facing": "S",
    "capacity": "M",
    "vibe": "Natural wine",
    "address": "Prinsenstraat 27",
    "verified": true,
    "coordSource": "places_api",
    "verifiedAt": "2026-05-02T11:36:44.057Z",
    "placeId": "ChIJeyWVgc8JxkcRW8wgxpIWtPc"
  },
  {
    "id": 58,
    "name": "P96",
    "lat": 52.37708,
    "lng": 4.88484,
    "area": "Jordaan",
    "facing": "S",
    "capacity": "S",
    "vibe": "Boat terrace",
    "address": "Prinsengracht 96",
    "verified": true,
    "coordSource": "places_api",
    "verifiedAt": "2026-05-02T11:36:44.407Z",
    "placeId": "EjVQcmluc2VuZ3JhY2h0IDk2LCBwOTYsIDEwMTUgRFogQW1zdGVyZGFtLCBOZXRoZXJsYW5kcyIfGh0KFgoUChIJF44LaMUJxkcRR4RlIYzOPzoSA3A5Ng"
  },
  {
    "id": 59,
    "name": "Café Tabac",
    "lat": 52.38018,
    "lng": 4.88852,
    "area": "Jordaan",
    "facing": "S",
    "capacity": "S",
    "vibe": "Classic haunt",
    "address": "Brouwersgracht 101",
    "verified": true,
    "coordSource": "places_api",
    "verifiedAt": "2026-05-02T11:36:44.757Z",
    "placeId": "ChIJu6MsHs8JxkcR_8o1IrutbP0"
  },
  {
    "id": 60,
    "name": "Café de Laurierboom",
    "lat": 52.3723,
    "lng": 4.88095,
    "area": "Jordaan",
    "facing": "S",
    "capacity": "S",
    "vibe": "Hidden Laurier",
    "address": "Laurierstraat 73",
    "verified": true,
    "coordSource": "places_api",
    "verifiedAt": "2026-05-02T11:36:45.107Z",
    "placeId": "ChIJXTD5o9wJxkcRZoQ54XbIhSg"
  },
  {
    "id": 61,
    "name": "Vesper Bar",
    "lat": 52.38216,
    "lng": 4.88692,
    "area": "Jordaan",
    "facing": "S",
    "capacity": "S",
    "vibe": "Craft cocktails",
    "address": "Haarlemmerdijk 59",
    "verified": true,
    "coordSource": "places_api",
    "verifiedAt": "2026-05-02T11:36:45.457Z",
    "placeId": "ChIJcUanY84JxkcRANelYPRjAIw"
  },
  {
    "id": 62,
    "name": "Bar Parry",
    "lat": 52.36899,
    "lng": 4.88118,
    "area": "Jordaan",
    "facing": "S",
    "capacity": "S",
    "vibe": "Wine bar",
    "address": "Elandsgracht 98",
    "verified": true,
    "coordSource": "places_api",
    "verifiedAt": "2026-05-02T11:36:45.791Z",
    "placeId": "ChIJ_SkHrcQJxkcR-tb7la68TQQ"
  },
  {
    "id": 63,
    "name": "Café Kalkhoven",
    "lat": 52.37389,
    "lng": 4.88361,
    "area": "Jordaan",
    "facing": "S",
    "capacity": "S",
    "vibe": "Canal classic",
    "address": "Prinsengracht 283",
    "verified": true,
    "coordSource": "places_api",
    "verifiedAt": "2026-05-02T11:36:46.157Z",
    "placeId": "ChIJm7z3x8QJxkcR6TisqsMjp4w"
  },
  {
    "id": 64,
    "name": "De Blauwe Pan",
    "lat": 52.37822,
    "lng": 4.88133,
    "area": "Jordaan",
    "facing": "S",
    "capacity": "S",
    "vibe": "Eetcafé",
    "address": "Westerstraat 200",
    "verified": true,
    "coordSource": "places_api",
    "verifiedAt": "2026-05-02T11:36:46.557Z",
    "placeId": "ChIJY4BpdNAJxkcRY7KVAzGKi_U"
  },
  {
    "id": 65,
    "name": "Kikkies",
    "lat": 52.37807,
    "lng": 4.8866,
    "area": "Jordaan",
    "facing": "S",
    "capacity": "S",
    "vibe": "Wine terrace",
    "address": "Prinsenstraat 29",
    "verified": true,
    "coordSource": "places_api",
    "verifiedAt": "2026-05-02T11:36:46.907Z",
    "placeId": "ChIJBWJ5NSoJxkcRTnKiY29yqzw"
  },
  {
    "id": 66,
    "name": "Dulcie",
    "lat": 52.37824,
    "lng": 4.88163,
    "area": "Jordaan",
    "facing": "S",
    "capacity": "S",
    "vibe": "Coffee & cake",
    "address": "Tichelstraat 41",
    "verified": true
  },
  {
    "id": 67,
    "name": "Louie Louie",
    "lat": 52.35485,
    "lng": 4.89179,
    "area": "De Pijp",
    "facing": "W",
    "capacity": "M",
    "vibe": "Lively terrace",
    "address": "Linnaeusstraat 11",
    "verified": true
  },
  {
    "id": 68,
    "name": "Bakers & Roasters (De Pijp)",
    "lat": 52.35729,
    "lng": 4.88986,
    "area": "De Pijp",
    "facing": "S",
    "capacity": "S",
    "vibe": "Brunch legend",
    "address": "Eerste Jacob van Campenstraat 54",
    "verified": true,
    "coordSource": "places_api",
    "verifiedAt": "2026-05-02T11:36:47.99Z",
    "placeId": "ChIJCX5FdO0JxkcRor975fXq3lA",
    "category": [
      "coffee"
    ],
    "googleRating": 4.6,
    "googleReviewCount": 4794
  },
  {
    "id": 69,
    "name": "CT Coffee & Coconuts",
    "lat": 52.35261,
    "lng": 4.89143,
    "area": "De Pijp",
    "facing": "S",
    "capacity": "L",
    "vibe": "Church conversion",
    "address": "Ceintuurbaan 282",
    "verified": true,
    "coordSource": "places_api",
    "verifiedAt": "2026-05-02T11:36:48.34Z",
    "placeId": "ChIJE7ZOMPMJxkcR66R6FxsNWSs"
  },
  {
    "id": 70,
    "name": "Bar Botanique",
    "lat": 52.3544,
    "lng": 4.8937,
    "area": "De Pijp",
    "facing": "SW",
    "capacity": "M",
    "vibe": "Greenhouse café",
    "address": "Eerste van der Helststraat 43",
    "verified": true
  },
  {
    "id": 71,
    "name": "Café Berkhout",
    "lat": 52.35793,
    "lng": 4.89068,
    "area": "De Pijp",
    "facing": "S",
    "capacity": "M",
    "vibe": "Albert Cuyp terrace",
    "address": "Stadhouderskade 77",
    "verified": true,
    "coordSource": "places_api",
    "verifiedAt": "2026-05-02T11:36:49.04Z",
    "placeId": "ChIJU9ZPEO0JxkcRudfaJ9vs7Oo"
  },
  {
    "id": 72,
    "name": "Barca",
    "lat": 52.35707,
    "lng": 4.89174,
    "area": "De Pijp",
    "facing": "W",
    "capacity": "M",
    "vibe": "Sarphatipark",
    "address": "Marie Heinekenplein 30",
    "verified": true,
    "coordSource": "places_api",
    "verifiedAt": "2026-05-02T11:36:49.391Z",
    "placeId": "ChIJxfr9Ru0JxkcRzY-3X8iBo-g"
  },
  {
    "id": 73,
    "name": "Scandinavian Embassy",
    "lat": 52.35346,
    "lng": 4.89422,
    "area": "De Pijp",
    "facing": "E",
    "capacity": "S",
    "vibe": "Nordic coffee",
    "address": "Sarphatipark 34",
    "verified": true,
    "coordSource": "places_api",
    "verifiedAt": "2026-05-02T11:36:49.74Z",
    "placeId": "ChIJZTMH4owJxkcReXGn3msj0nU",
    "category": [
      "coffee"
    ]
  },
  {
    "id": 74,
    "name": "Le Fournil de Sébastien",
    "lat": 52.3463012,
    "lng": 4.867900700000001,
    "area": "De Pijp",
    "facing": "S",
    "capacity": "S",
    "vibe": "French bakery",
    "address": "Olympiaplein 119",
    "verified": true,
    "coordSource": "places_api",
    "verifiedAt": "2026-05-02T11:36:50.057Z",
    "placeId": "ChIJQ6qh1QEKxkcRtR4wSt_5tdE"
  },
  {
    "id": 75,
    "name": "Café Krull",
    "lat": 52.35443,
    "lng": 4.8936,
    "area": "De Pijp",
    "facing": "E",
    "capacity": "M",
    "vibe": "Corner classic",
    "address": "Sarphatistraat 2",
    "verified": true,
    "coordSource": "places_api",
    "verifiedAt": "2026-05-02T11:36:50.407Z",
    "placeId": "ChIJkVRVOY0JxkcRBQD6sTVXHhY"
  },
  {
    "id": 76,
    "name": "Little Collins",
    "lat": 52.35583,
    "lng": 4.89808,
    "area": "De Pijp",
    "facing": "S",
    "capacity": "S",
    "vibe": "Aussie brunch",
    "address": "Eerste Sweelinckstraat 19f",
    "verified": true,
    "coordSource": "places_api",
    "verifiedAt": "2026-05-02T11:36:50.74Z",
    "placeId": "ChIJNxPl9Y0JxkcRiXF6kIukt5o"
  },
  {
    "id": 77,
    "name": "Café Binnen Buiten",
    "lat": 52.3548,
    "lng": 4.88722,
    "area": "De Pijp",
    "facing": "SE",
    "capacity": "M",
    "vibe": "Inside outside",
    "address": "Ruysdaelstraat 100",
    "verified": true,
    "coordSource": "places_api",
    "verifiedAt": "2026-05-02T11:36:51.124Z",
    "placeId": "ChIJZea7PvIJxkcRoSZvAsjqsUE"
  },
  {
    "id": 78,
    "name": "Café Sarphaat",
    "lat": 52.35437,
    "lng": 4.89927,
    "area": "De Pijp",
    "facing": "S",
    "capacity": "M",
    "vibe": "Park views",
    "address": "Sarphatipark 1",
    "verified": true,
    "coordSource": "places_api",
    "verifiedAt": "2026-05-02T11:36:51.491Z",
    "placeId": "ChIJN2Rj2I8JxkcRnbwbrmS-6Oc"
  },
  {
    "id": 79,
    "name": "De Pilsvogel",
    "lat": 52.35584,
    "lng": 4.89278,
    "area": "De Pijp",
    "facing": "S",
    "capacity": "M",
    "vibe": "Gerard Douplein",
    "address": "Gerard Douplein 14",
    "verified": true,
    "coordSource": "places_api",
    "verifiedAt": "2026-05-02T11:36:51.924Z",
    "placeId": "ChIJ5X98VI0JxkcRnpR0gFR5AQg"
  },
  {
    "id": 80,
    "name": "Meneer Nilsson",
    "lat": 52.35499,
    "lng": 4.88795,
    "area": "De Pijp",
    "facing": "SW",
    "capacity": "S",
    "vibe": "Swedish café",
    "address": "Eerste van der Helststraat 24",
    "verified": true
  },
  {
    "id": 81,
    "name": "Café Bloemers",
    "lat": 52.35559,
    "lng": 4.90315,
    "area": "De Pijp",
    "facing": "S",
    "capacity": "M",
    "vibe": "Heated terrace",
    "address": "Ceintuurbaan 128",
    "verified": true,
    "coordSource": "places_api",
    "verifiedAt": "2026-05-02T11:36:52.624Z",
    "placeId": "ChIJAwYU2I8JxkcR8Ij0OiDiXgU"
  },
  {
    "id": 83,
    "name": "Bar Mash",
    "lat": 52.35613,
    "lng": 4.89284,
    "area": "De Pijp",
    "facing": "S",
    "capacity": "S",
    "vibe": "Asian bar bites",
    "address": "Gerard Doustraat 69",
    "verified": true,
    "coordSource": "places_api",
    "verifiedAt": "2026-05-02T11:36:52.99Z",
    "placeId": "ChIJV_L7VY0JxkcR_W9xiqv6mcM"
  },
  {
    "id": 84,
    "name": "Café de Toog",
    "lat": 52.3622034,
    "lng": 4.8676620999999995,
    "area": "De Pijp",
    "facing": "W",
    "capacity": "S",
    "vibe": "Students",
    "address": "Nicolaas Beetsstraat 82",
    "verified": true,
    "coordSource": "places_api",
    "verifiedAt": "2026-05-02T11:36:53.34Z",
    "placeId": "ChIJZQ4JBOIJxkcRC_bkTW7Aco4"
  },
  {
    "id": 86,
    "name": "Firma Pekelharingen",
    "lat": 52.35331,
    "lng": 4.90274,
    "area": "De Pijp",
    "facing": "S",
    "capacity": "M",
    "vibe": "Farm-to-table",
    "address": "Van Woustraat 127",
    "verified": true,
    "coordSource": "places_api",
    "verifiedAt": "2026-05-02T11:36:53.725Z",
    "placeId": "ChIJm0D-qI8JxkcRco7cqjacLyg"
  },
  {
    "id": 87,
    "name": "Sir Hummus",
    "lat": 52.35252,
    "lng": 4.8869,
    "area": "De Pijp",
    "facing": "S",
    "capacity": "S",
    "vibe": "Middle Eastern",
    "address": "Van der Helstplein 2",
    "verified": true,
    "coordSource": "places_api",
    "verifiedAt": "2026-05-02T11:36:54.091Z",
    "placeId": "ChIJP5ZYwPMJxkcRA5aJSYHIAIw"
  },
  {
    "id": 89,
    "name": "De Biertuin",
    "lat": 52.36232,
    "lng": 4.92424,
    "area": "Oost",
    "facing": "S",
    "capacity": "L",
    "vibe": "Park beer garden",
    "address": "Linnaeusstraat 29",
    "verified": true,
    "coordSource": "places_api",
    "verifiedAt": "2026-05-02T11:36:54.49Z",
    "placeId": "ChIJMVoEUXQJxkcRaEBZ7Kl4pyM"
  },
  {
    "id": 90,
    "name": "Roest",
    "lat": 52.37197,
    "lng": 4.92656,
    "area": "Oost",
    "facing": "S",
    "capacity": "L",
    "vibe": "Urban beach",
    "address": "Jacob Bontiusplaats 1",
    "verified": true,
    "coordSource": "places_api",
    "verifiedAt": "2026-05-02T11:36:54.857Z",
    "placeId": "ChIJu6iZ7g4JxkcRK54QA7mfGQU"
  },
  {
    "id": 91,
    "name": "Canvas",
    "lat": 52.35377,
    "lng": 4.91165,
    "area": "Oost",
    "facing": "All",
    "capacity": "M",
    "vibe": "Rooftop Volkshotel",
    "address": "Wibautstraat 150",
    "verified": true,
    "coordSource": "places_api",
    "verifiedAt": "2026-05-02T11:36:55.19Z",
    "placeId": "ChIJVRJRnoQJxkcR7AzzTwwCCpQ"
  },
  {
    "id": 92,
    "name": "Bar Bukowski",
    "lat": 52.35796,
    "lng": 4.91767,
    "area": "Oost",
    "facing": "S",
    "capacity": "M",
    "vibe": "Oosterpark",
    "address": "Oosterpark 10",
    "verified": true,
    "coordSource": "places_api",
    "verifiedAt": "2026-05-02T11:36:55.591Z",
    "placeId": "ChIJu57So50JxkcRMoFn_kdLWPI",
    "category": [
      "coffee"
    ],
    "googleRating": 4.4,
    "googleReviewCount": 2417
  },
  {
    "id": 93,
    "name": "Wilde Zwijnen",
    "lat": 52.363584599999996,
    "lng": 4.940446800000001,
    "area": "Oost",
    "facing": "E",
    "capacity": "M",
    "vibe": "Wild cuisine",
    "address": "Javaplein 23",
    "verified": true,
    "coordSource": "places_api",
    "verifiedAt": "2026-05-02T11:36:55.991Z",
    "placeId": "ChIJqVNOoGwJxkcR_-mCTqkhKCE"
  },
  {
    "id": 94,
    "name": "Café Hesp",
    "lat": 52.34982,
    "lng": 4.91258,
    "area": "Oost",
    "facing": "SW",
    "capacity": "M",
    "vibe": "Amstel terrace",
    "address": "Weesperzijde 131",
    "verified": true,
    "coordSource": "places_api",
    "verifiedAt": "2026-05-02T11:36:56.358Z",
    "placeId": "ChIJ-TJ34oMJxkcR2dSq1AvPMSM"
  },
  {
    "id": 95,
    "name": "De Ysbreeker",
    "lat": 52.35746,
    "lng": 4.90676,
    "area": "Oost",
    "facing": "SW",
    "capacity": "L",
    "vibe": "Amstel riverside",
    "address": "Weesperzijde 23",
    "verified": true,
    "coordSource": "places_api",
    "verifiedAt": "2026-05-02T11:36:56.707Z",
    "placeId": "ChIJ5dKrnJoJxkcR0ehyJ37T-Tc"
  },
  {
    "id": 96,
    "name": "Rum Baba (Oost)",
    "lat": 52.35599,
    "lng": 4.92654,
    "area": "Oost",
    "facing": "S",
    "capacity": "S",
    "vibe": "Mediterranean",
    "address": "Eerste Atjehstraat 95",
    "verified": true,
    "coordSource": "places_api",
    "verifiedAt": "2026-05-02T11:36:57.14Z",
    "placeId": "ChIJt6DQt3AJxkcRwSOPcHVUxbw",
    "category": [
      "coffee"
    ]
  },
  {
    "id": 97,
    "name": "Coffee Bru",
    "lat": 52.35709,
    "lng": 4.9177,
    "area": "Oost",
    "facing": "S",
    "capacity": "S",
    "vibe": "Third wave",
    "address": "Beukenplein 14",
    "verified": true,
    "coordSource": "places_api",
    "verifiedAt": "2026-05-02T11:36:57.468Z",
    "placeId": "ChIJd2X8c50JxkcRNsQhx9GbK18",
    "category": [
      "coffee"
    ],
    "googleRating": 4.5,
    "googleReviewCount": 766
  },
  {
    "id": 99,
    "name": "Hiding in Plain Sight",
    "lat": 52.37172,
    "lng": 4.90771,
    "area": "Oost",
    "facing": "E",
    "capacity": "S",
    "vibe": "Cocktail hidden",
    "address": "Rapenburgstraat 18",
    "verified": true,
    "coordSource": "places_api",
    "verifiedAt": "2026-05-02T11:36:57.824Z",
    "placeId": "ChIJZcWiWbsJxkcRmr9aZRD3Ilc"
  },
  {
    "id": 100,
    "name": "Bar Fisk",
    "lat": 52.355762299999995,
    "lng": 4.8981382,
    "area": "Oost",
    "facing": "S",
    "capacity": "S",
    "vibe": "Seafood terrace",
    "address": "Javastraat 27",
    "verified": true,
    "coordSource": "places_api",
    "verifiedAt": "2026-05-02T11:36:58.158Z",
    "placeId": "ChIJE2dP9o0JxkcRNspFyfxxAWw"
  },
  {
    "id": 101,
    "name": "Walter Woodbury Bar",
    "lat": 52.3634917,
    "lng": 4.9334333,
    "area": "Oost",
    "facing": "S",
    "capacity": "S",
    "vibe": "Photography café",
    "address": "Javastraat 67",
    "verified": true,
    "coordSource": "places_api",
    "verifiedAt": "2026-05-02T11:36:58.524Z",
    "placeId": "ChIJ8TXSmHIJxkcRzrhPDrBb8QI"
  },
  {
    "id": 102,
    "name": "Poesiat & Kater",
    "lat": 52.35767,
    "lng": 4.93572,
    "area": "Oost",
    "facing": "S",
    "capacity": "L",
    "vibe": "Craft brewery",
    "address": "Polderweg 648",
    "verified": true,
    "coordSource": "places_api",
    "verifiedAt": "2026-05-02T11:36:58.89Z",
    "placeId": "ChIJNeQBWm4JxkcR-VGEHgmVmOQ"
  },
  {
    "id": 103,
    "name": "GAPP",
    "lat": 52.35837,
    "lng": 4.91169,
    "area": "Oost",
    "facing": "All",
    "capacity": "M",
    "vibe": "Rooftop beergarden",
    "address": "Tilanusstraat 30",
    "verified": true
  },
  {
    "id": 105,
    "name": "Clos",
    "lat": 52.35671,
    "lng": 4.91808,
    "area": "Oost",
    "facing": "S",
    "capacity": "S",
    "vibe": "Wine terrace",
    "address": "Beukenplein 17",
    "verified": true,
    "coordSource": "places_api",
    "verifiedAt": "2026-05-02T11:36:59.541Z",
    "placeId": "ChIJzfayl0QJxkcRrDpFzfgA4ac"
  },
  {
    "id": 106,
    "name": "Café Langendijk",
    "lat": 52.36612900000001,
    "lng": 4.9001399,
    "area": "Oost",
    "facing": "E",
    "capacity": "S",
    "vibe": "Eetcafé",
    "address": "Zeeburgerstraat 1",
    "verified": true,
    "coordSource": "places_api",
    "verifiedAt": "2026-05-03T13:34:58.507Z",
    "placeId": "ChIJ3QWjFQsJxkcRByiZTvixDZE"
  },
  {
    "id": 107,
    "name": "Café Dauphine",
    "lat": 52.34838,
    "lng": 4.91733,
    "area": "Oost",
    "facing": "S",
    "capacity": "M",
    "vibe": "Grand terrace",
    "address": "Prins Bernhardplein 175",
    "verified": true,
    "coordSource": "places_api",
    "verifiedAt": "2026-05-02T11:37:00.324Z",
    "placeId": "ChIJIaOF54EJxkcR2HIx7og1zpY"
  },
  {
    "id": 108,
    "name": "Waterkant",
    "lat": 52.38618,
    "lng": 4.90131,
    "area": "Noord",
    "facing": "S",
    "capacity": "L",
    "vibe": "Beach club IJ",
    "address": "Marnixkade 613",
    "verified": true
  },
  {
    "id": 109,
    "name": "Pllek",
    "lat": 52.39916,
    "lng": 4.89288,
    "area": "Noord",
    "facing": "S",
    "capacity": "L",
    "vibe": "NDSM beach bar",
    "address": "Tt. Neveritaweg 59",
    "verified": true,
    "coordSource": "places_api",
    "verifiedAt": "2026-05-02T11:37:01.057Z",
    "placeId": "ChIJ856viTkIxkcRXFJrwFltL_4"
  },
  {
    "id": 110,
    "name": "Tolhuistuin",
    "lat": 52.38318,
    "lng": 4.90321,
    "area": "Noord",
    "facing": "S",
    "capacity": "L",
    "vibe": "Cultural garden",
    "address": "IJpromenade 2",
    "verified": true,
    "coordSource": "places_api",
    "verifiedAt": "2026-05-02T11:37:01.424Z",
    "placeId": "ChIJ42qtkbMJxkcRwWb-lV0ikSU"
  },
  {
    "id": 111,
    "name": "Café de Ceuvel",
    "lat": 52.39331,
    "lng": 4.91069,
    "area": "Noord",
    "facing": "S",
    "capacity": "M",
    "vibe": "Eco-café",
    "address": "Korte Papaverweg 4",
    "verified": true,
    "coordSource": "places_api",
    "verifiedAt": "2026-05-02T11:37:01.824Z",
    "placeId": "ChIJ48qqbU4IxkcR2L1J_86AiRI"
  },
  {
    "id": 112,
    "name": "IJ-Kantine",
    "lat": 52.40149,
    "lng": 4.89116,
    "area": "Noord",
    "facing": "SW",
    "capacity": "M",
    "vibe": "NDSM warehouse",
    "address": "Mt. Ondinaweg 15",
    "verified": true,
    "coordSource": "places_api",
    "verifiedAt": "2026-05-02T11:37:02.24Z",
    "placeId": "ChIJnW2XqjsIxkcRsTdHXEPi0AQ"
  },
  {
    "id": 113,
    "name": "Café Noorderlicht",
    "lat": 52.39957,
    "lng": 4.89683,
    "area": "Noord",
    "facing": "S",
    "capacity": "M",
    "vibe": "NDSM greenhouse",
    "address": "NDSM-plein 102",
    "verified": true,
    "coordSource": "places_api",
    "verifiedAt": "2026-05-02T11:37:02.624Z",
    "placeId": "ChIJ_0I5gzkIxkcRQ7If6PckZ4o"
  },
  {
    "id": 114,
    "name": "Eye Bar",
    "lat": 52.38433,
    "lng": 4.90093,
    "area": "Noord",
    "facing": "S",
    "capacity": "M",
    "vibe": "Film museum",
    "address": "IJpromenade 1",
    "verified": true,
    "coordSource": "places_api",
    "verifiedAt": "2026-05-02T11:37:02.991Z",
    "placeId": "ChIJtSTJs7UJxkcRA8_FCQDpAoI"
  },
  {
    "id": 115,
    "name": "Oedipus Brewing",
    "lat": 52.39248,
    "lng": 4.89048,
    "area": "Noord",
    "facing": "All",
    "capacity": "M",
    "vibe": "Craft brewery",
    "address": "Gedempt Hamerkanaal 85",
    "verified": true
  },
  {
    "id": 116,
    "name": "Stork",
    "lat": 52.3821601,
    "lng": 4.9202771,
    "area": "Noord",
    "facing": "S",
    "capacity": "L",
    "vibe": "Waterfront industrial",
    "address": "Gedempt Hamerkanaal 201",
    "verified": true,
    "coordSource": "places_api",
    "verifiedAt": "2026-05-02T11:37:03.707Z",
    "placeId": "ChIJcwU1qqsJxkcROAOJFGH0Gdk"
  },
  {
    "id": 117,
    "name": "FC Hyena",
    "lat": 52.39299,
    "lng": 4.89202,
    "area": "Noord",
    "facing": "S",
    "capacity": "M",
    "vibe": "Cinema terrace",
    "address": "Aambeeldstraat 24",
    "verified": true
  },
  {
    "id": 119,
    "name": "IJver",
    "lat": 52.40133,
    "lng": 4.89505,
    "area": "Noord",
    "facing": "S",
    "capacity": "M",
    "vibe": "NDSM art hub",
    "address": "NDSM-plein 28",
    "verified": true,
    "coordSource": "places_api",
    "verifiedAt": "2026-05-02T11:37:04.424Z",
    "placeId": "ChIJ6RkTfL4JxkcRvTYNCHw3uNg",
    "outdoorScreens": 2,
    "outdoorScreensVerifiedAt": "2026-05-07T21:38:49.672Z"
  },
  {
    "id": 120,
    "name": "Polly Goudvisch",
    "lat": 52.38245,
    "lng": 4.90328,
    "area": "Noord",
    "facing": "S",
    "capacity": "M",
    "vibe": "New waterfront",
    "address": "Buiksloterweg 5c",
    "verified": true,
    "coordSource": "places_api",
    "verifiedAt": "2026-05-02T11:37:04.791Z",
    "placeId": "ChIJE3q2NcYJxkcRQM0Ug_er0ho"
  },
  {
    "id": 121,
    "name": "Lagerwal",
    "lat": 52.38905,
    "lng": 4.9025,
    "area": "Noord",
    "facing": "S",
    "capacity": "M",
    "vibe": "Adult playground",
    "address": "Neveritaweg 41",
    "verified": true,
    "outdoorScreens": 1,
    "outdoorScreensVerifiedAt": "2026-05-07T21:38:49.672Z"
  },
  {
    "id": 122,
    "name": "De Hallen Food",
    "lat": 52.36679,
    "lng": 4.86791,
    "area": "Oud-West",
    "facing": "S",
    "capacity": "L",
    "vibe": "Foodhall terrace",
    "address": "Hannie Dankbaarpassage 33",
    "verified": true,
    "coordSource": "places_api",
    "verifiedAt": "2026-05-02T11:37:05.524Z",
    "placeId": "ChIJtWMWEeAJxkcR7PV7zX9aRh0"
  },
  {
    "id": 123,
    "name": "Lot Sixty One",
    "lat": 52.36683,
    "lng": 4.87031,
    "area": "Oud-West",
    "facing": "S",
    "capacity": "S",
    "vibe": "Specialty coffee",
    "address": "Kinkerstraat 112",
    "verified": true,
    "coordSource": "places_api",
    "verifiedAt": "2026-05-02T11:37:05.874Z",
    "placeId": "ChIJEfmjb-AJxkcRqdnhOTbEetc",
    "category": [
      "coffee"
    ]
  },
  {
    "id": 124,
    "name": "Bar Spek",
    "lat": 52.37013,
    "lng": 4.86448,
    "area": "Oud-West",
    "facing": "W",
    "capacity": "S",
    "vibe": "Bilderdijkstraat",
    "address": "Bilderdijkstraat 137",
    "verified": true,
    "coordSource": "places_api",
    "verifiedAt": "2026-05-02T11:37:06.224Z",
    "placeId": "ChIJTRR7-nTixUcRIJIQmnpX04g"
  },
  {
    "id": 125,
    "name": "Café Brecht",
    "lat": 52.359805200000004,
    "lng": 4.8900679,
    "area": "Oud-West",
    "facing": "S",
    "capacity": "M",
    "vibe": "Berlin wohnzimmer",
    "address": "Weteringschans 157",
    "verified": true,
    "coordSource": "places_api",
    "verifiedAt": "2026-05-02T11:37:06.574Z",
    "placeId": "ChIJuSc29uwJxkcRoiEBH4MzFv8",
    "category": [
      "coffee"
    ],
    "googleRating": 4.6,
    "googleReviewCount": 1853
  },
  {
    "id": 126,
    "name": "Café Cook",
    "lat": 52.37129,
    "lng": 4.85262,
    "area": "Oud-West",
    "facing": "SE",
    "capacity": "M",
    "vibe": "Kinkerstraat",
    "address": "Eerste Constantijn Huygensstraat 89",
    "verified": true,
    "coordSource": "places_api",
    "verifiedAt": "2026-05-02T11:37:06.959Z",
    "placeId": "ChIJjVl8qW3ixUcRHe6iFoVRg9U"
  },
  {
    "id": 127,
    "name": "Café Kobalt",
    "lat": 52.36553,
    "lng": 4.87199,
    "area": "Oud-West",
    "facing": "S",
    "capacity": "M",
    "vibe": "Leidseplein area",
    "address": "Singel 2a",
    "verified": true
  },
  {
    "id": 128,
    "name": "Morgan & Mees",
    "lat": 52.37435,
    "lng": 4.87456,
    "area": "West",
    "facing": "S",
    "capacity": "M",
    "vibe": "Boutique hotel",
    "address": "Tweede Hugo de Grootstraat 2",
    "verified": true,
    "coordSource": "places_api",
    "verifiedAt": "2026-05-02T11:37:07.691Z",
    "placeId": "ChIJdRsxatkJxkcRLODNY7xQPOs"
  },
  {
    "id": 129,
    "name": "Bar Centraal",
    "lat": 52.36733,
    "lng": 4.86648,
    "area": "West",
    "facing": "S",
    "capacity": "S",
    "vibe": "Natural wine",
    "address": "Jan Pieter Heijestraat 116",
    "verified": true,
    "coordSource": "places_api",
    "verifiedAt": "2026-05-02T11:37:08.058Z",
    "placeId": "ChIJVXzXtwrixUcRwgsVd0_rJeY"
  },
  {
    "id": 130,
    "name": "Café Thuys",
    "lat": 52.36991,
    "lng": 4.86538,
    "area": "De Baarsjes",
    "facing": "S",
    "capacity": "S",
    "vibe": "Local terrace",
    "address": "Mercatorplein 21",
    "verified": true,
    "coordSource": "places_api",
    "verifiedAt": "2026-05-02T11:37:08.407Z",
    "placeId": "ChIJ6YHIAnXixUcRHsdvabPIHNo"
  },
  {
    "id": 131,
    "name": "Bar Brandstof",
    "lat": 52.3725151,
    "lng": 4.8760965,
    "area": "De Baarsjes",
    "facing": "S",
    "capacity": "S",
    "vibe": "Firehouse views",
    "address": "Mercatorplein 18",
    "verified": true,
    "coordSource": "places_api",
    "verifiedAt": "2026-05-02T11:37:08.791Z",
    "placeId": "ChIJoV84AdwJxkcRzuImV9BOroU"
  },
  {
    "id": 132,
    "name": "Zurich",
    "lat": 52.36897,
    "lng": 4.85045,
    "area": "De Baarsjes",
    "facing": "S",
    "capacity": "M",
    "vibe": "Square terrace",
    "address": "Mercatorplein 35",
    "verified": true
  },
  {
    "id": 133,
    "name": "Frits",
    "lat": 52.37008,
    "lng": 4.85146,
    "area": "De Baarsjes",
    "facing": "S",
    "capacity": "M",
    "vibe": "Beer selection",
    "address": "Mercatorplein 22",
    "verified": true,
    "coordSource": "places_api",
    "verifiedAt": "2026-05-02T11:37:09.441Z",
    "placeId": "ChIJe_q95mzixUcRZ68gArDLW64"
  },
  {
    "id": 134,
    "name": "Café Bax",
    "lat": 52.36561,
    "lng": 4.86794,
    "area": "West",
    "facing": "S",
    "capacity": "S",
    "vibe": "Local bar",
    "address": "Ten Katestraat 119",
    "verified": true,
    "coordSource": "places_api",
    "verifiedAt": "2026-05-02T11:37:09.825Z",
    "placeId": "ChIJJY-oKeAJxkcR0enaNoJzgy4"
  },
  {
    "id": 135,
    "name": "Back to Black (Witte de Withstraat)",
    "lat": 52.36748,
    "lng": 4.85048,
    "area": "De Baarsjes",
    "facing": "S",
    "capacity": "S",
    "vibe": "Third wave",
    "address": "Witte de Withstraat 87",
    "verified": true
  },
  {
    "id": 136,
    "name": "Pendergast",
    "lat": 52.36505,
    "lng": 4.85447,
    "area": "De Baarsjes",
    "facing": "W",
    "capacity": "S",
    "vibe": "Coffee expert",
    "address": "Overtoom 344",
    "verified": true
  },
  {
    "id": 137,
    "name": "Bar Kosta",
    "lat": 52.35796,
    "lng": 4.85561,
    "area": "West",
    "facing": "S",
    "capacity": "M",
    "vibe": "Surinameplein",
    "address": "Surinameplein 1",
    "verified": true,
    "coordSource": "places_api",
    "verifiedAt": "2026-05-02T11:37:10.858Z",
    "placeId": "ChIJQYhYjw_ixUcRuWWCV7vg_tA"
  },
  {
    "id": 138,
    "name": "Bar Roseval",
    "lat": 52.3829,
    "lng": 4.85103,
    "area": "West",
    "facing": "S",
    "capacity": "S",
    "vibe": "Street food terrace",
    "address": "Kinkerstraat 183",
    "verified": true,
    "coordSource": "places_api",
    "verifiedAt": "2026-05-02T11:37:11.208Z",
    "placeId": "ChIJ8TnBIGTixUcRWSJco0kJtzo"
  },
  {
    "id": 139,
    "name": "Bureau",
    "lat": 52.36489,
    "lng": 4.86354,
    "area": "West",
    "facing": "All",
    "capacity": "M",
    "vibe": "Rooftop Oud-West",
    "address": "Kinkerstraat 283",
    "verified": true,
    "coordSource": "places_api",
    "verifiedAt": "2026-05-02T11:37:11.557Z",
    "placeId": "ChIJv-pfrwvixUcR3KBT2NOfLkc"
  },
  {
    "id": 140,
    "name": "Piet de Gruyter",
    "lat": 52.3665,
    "lng": 4.84898,
    "area": "West",
    "facing": "S",
    "capacity": "L",
    "vibe": "Cultural garden",
    "address": "Rijnvis Feithstraat 2",
    "verified": true
  },
  {
    "id": 141,
    "name": "Pacific Park",
    "lat": 52.38593,
    "lng": 4.87147,
    "area": "Westerpark",
    "facing": "S",
    "capacity": "L",
    "vibe": "Westerpark venue",
    "address": "Polonceaukade 23",
    "verified": true,
    "coordSource": "places_api",
    "verifiedAt": "2026-05-02T11:37:12.291Z",
    "placeId": "ChIJ82Ku_mYJxkcRZWFK2mf5IyQ"
  },
  {
    "id": 142,
    "name": "WestWeelde",
    "lat": 52.38713,
    "lng": 4.87002,
    "area": "Westerpark",
    "facing": "SW",
    "capacity": "L",
    "vibe": "Westergasterras",
    "address": "Klönneplein 4",
    "verified": true,
    "coordSource": "places_api",
    "verifiedAt": "2026-05-02T11:37:12.658Z",
    "placeId": "ChIJRRvKPOnjxUcRKMNYadTfpF4"
  },
  {
    "id": 143,
    "name": "Mossel & Gin",
    "lat": 52.38648,
    "lng": 4.86803,
    "area": "Westerpark",
    "facing": "S",
    "capacity": "M",
    "vibe": "Seafood terrace",
    "address": "Gosschalklaan 12",
    "verified": true,
    "coordSource": "places_api",
    "verifiedAt": "2026-05-02T11:37:13.008Z",
    "placeId": "ChIJfaL0_37ixUcR0k7Qq5PrwIc"
  },
  {
    "id": 144,
    "name": "Brouwerij Troost",
    "lat": 52.38608,
    "lng": 4.87282,
    "area": "Westerpark",
    "facing": "S",
    "capacity": "L",
    "vibe": "Brewery garden",
    "address": "Pazzanistraat 27",
    "verified": true,
    "coordSource": "places_api",
    "verifiedAt": "2026-05-02T11:37:13.341Z",
    "placeId": "ChIJMy8gn9UJxkcRnK9Ba6RombY"
  },
  {
    "id": 145,
    "name": "Café Amsterdam",
    "lat": 52.38414,
    "lng": 4.86833,
    "area": "Westerpark",
    "facing": "S",
    "capacity": "L",
    "vibe": "Westergasfabriek",
    "address": "Haarlemmerweg 325",
    "verified": true,
    "coordSource": "places_api",
    "verifiedAt": "2026-05-02T11:37:13.742Z",
    "placeId": "ChIJe3hOLH_ixUcRRLECWCyvFZE"
  },
  {
    "id": 146,
    "name": "Bar Kantoor",
    "lat": 52.38661,
    "lng": 4.8753,
    "area": "Westerpark",
    "facing": "S",
    "capacity": "L",
    "vibe": "Industrial terrace",
    "address": "Van Limburg Stirumstraat 2",
    "verified": true,
    "coordSource": "places_api",
    "verifiedAt": "2026-05-02T11:37:14.124Z",
    "placeId": "ChIJDd6p-9QJxkcR9M4b-fwpLSY",
    "outdoorScreens": 1,
    "outdoorScreensVerifiedAt": "2026-05-07T21:38:49.672Z"
  },
  {
    "id": 147,
    "name": "Café Edel",
    "lat": 52.39001,
    "lng": 4.86398,
    "area": "Spaarndammer",
    "facing": "S",
    "capacity": "S",
    "vibe": "Neighbourhood",
    "address": "Spaarndammerdijk 575",
    "verified": true
  },
  {
    "id": 148,
    "name": "REM Eiland",
    "lat": 52.39872,
    "lng": 4.88323,
    "area": "Houthavens",
    "facing": "All",
    "capacity": "M",
    "vibe": "Elevated 360°",
    "address": "Haparandadam 45",
    "verified": true,
    "coordSource": "places_api",
    "verifiedAt": "2026-05-02T11:37:14.841Z",
    "placeId": "ChIJry2ew-IJxkcRH-3wHCU4IqY"
  },
  {
    "id": 149,
    "name": "Pont 13",
    "lat": 52.39758,
    "lng": 4.88303,
    "area": "Houthavens",
    "facing": "S",
    "capacity": "M",
    "vibe": "Ferry restaurant",
    "address": "Haparandadam 50",
    "verified": true,
    "coordSource": "places_api",
    "verifiedAt": "2026-05-02T11:37:15.225Z",
    "placeId": "ChIJg4TD4PMJxkcRYUhCpKebyXA"
  },
  {
    "id": 150,
    "name": "Vondelpark3",
    "lat": 52.36104,
    "lng": 4.87496,
    "area": "Oud-Zuid",
    "facing": "S",
    "capacity": "L",
    "vibe": "Park pavilion",
    "address": "Vondelpark 3",
    "verified": true,
    "coordSource": "places_api",
    "verifiedAt": "2026-05-02T11:37:15.591Z",
    "placeId": "ChIJtYtcFOQJxkcRhd-LP7Pimo8"
  },
  {
    "id": 151,
    "name": "Het Blauwe Theehuis",
    "lat": 52.35883,
    "lng": 4.87255,
    "area": "Oud-Zuid",
    "facing": "All",
    "capacity": "L",
    "vibe": "Modernist pavilion",
    "address": "Vondelpark 5",
    "verified": true,
    "coordSource": "places_api",
    "verifiedAt": "2026-05-02T11:37:16.008Z",
    "placeId": "ChIJK5ErwF8JxkcRqjp0mnDFR5E"
  },
  {
    "id": 152,
    "name": "Groot Melkhuis",
    "lat": 52.35847,
    "lng": 4.8683,
    "area": "Oud-Zuid",
    "facing": "S",
    "capacity": "L",
    "vibe": "Family park",
    "address": "Vondelpark 2a",
    "verified": true,
    "coordSource": "places_api",
    "verifiedAt": "2026-05-02T11:37:16.341Z",
    "placeId": "ChIJgcR47OIJxkcR6JS-5U83nMA"
  },
  {
    "id": 153,
    "name": "Café Wildschut",
    "lat": 52.35342,
    "lng": 4.88229,
    "area": "Oud-Zuid",
    "facing": "W",
    "capacity": "M",
    "vibe": "Art deco",
    "address": "Roelof Hartplein 1",
    "verified": true,
    "coordSource": "places_api",
    "verifiedAt": "2026-05-02T11:37:16.708Z",
    "placeId": "ChIJr85cAvEJxkcRSKv5cLO2_pg"
  },
  {
    "id": 154,
    "name": "George W.P.A.",
    "lat": 52.35729,
    "lng": 4.87478,
    "area": "Oud-Zuid",
    "facing": "S",
    "capacity": "M",
    "vibe": "Museum quarter",
    "address": "Museumplein 13",
    "verified": true,
    "coordSource": "places_api",
    "verifiedAt": "2026-05-02T11:37:17.059Z",
    "placeId": "ChIJtUptyeQJxkcRF8u0aSLiTFc"
  },
  {
    "id": 155,
    "name": "Café Toussaint",
    "lat": 52.36577,
    "lng": 4.87619,
    "area": "Oud-Zuid",
    "facing": "E",
    "capacity": "S",
    "vibe": "Hidden terrace",
    "address": "Bosboom Toussaintstraat 26",
    "verified": true,
    "coordSource": "places_api",
    "verifiedAt": "2026-05-02T11:37:17.457Z",
    "placeId": "ChIJJRpjFucJxkcRG7bczZJ-MpE"
  },
  {
    "id": 156,
    "name": "Cobra Café",
    "lat": 52.35891,
    "lng": 4.88436,
    "area": "Oud-Zuid",
    "facing": "S",
    "capacity": "M",
    "vibe": "Museumplein",
    "address": "Hobbemastraat 18",
    "verified": true,
    "coordSource": "places_api",
    "verifiedAt": "2026-05-02T11:37:17.84Z",
    "placeId": "ChIJ1RwvWe4JxkcRRDkroDqK3I8"
  },
  {
    "id": 157,
    "name": "De Balie",
    "lat": 52.36306,
    "lng": 4.88304,
    "area": "Oud-Zuid",
    "facing": "S",
    "capacity": "M",
    "vibe": "Cultural café",
    "address": "Klein Gartmanplantsoen 10",
    "verified": true,
    "coordSource": "places_api",
    "verifiedAt": "2026-05-02T11:37:18.224Z",
    "placeId": "ChIJ41VT3egJxkcRT9LuvhNkxcg"
  },
  {
    "id": 158,
    "name": "Gent aan de Schinkel",
    "lat": 52.35467,
    "lng": 4.85299,
    "area": "Oud-Zuid",
    "facing": "S",
    "capacity": "M",
    "vibe": "Belgian waterside",
    "address": "Theophile de Bockstraat 1",
    "verified": true,
    "coordSource": "places_api",
    "verifiedAt": "2026-05-02T11:37:18.575Z",
    "placeId": "ChIJG95E0QTixUcRnprmkUt0Hl0"
  },
  {
    "id": 160,
    "name": "Café Bédier",
    "lat": 52.35249,
    "lng": 4.85652,
    "area": "Oud-Zuid",
    "facing": "S",
    "capacity": "S",
    "vibe": "Quiet terrace",
    "address": "Sophialaan 36",
    "verified": true,
    "coordSource": "places_api",
    "verifiedAt": "2026-05-02T11:37:19.294Z",
    "placeId": "ChIJc7PWdQTixUcRHOWNH4EPCIk"
  },
  {
    "id": 161,
    "name": "Café Welling",
    "lat": 52.35599,
    "lng": 4.87726,
    "area": "Zuid",
    "facing": "W",
    "capacity": "S",
    "vibe": "Classic brown",
    "address": "J.W. Brouwersstraat 32",
    "verified": true,
    "coordSource": "places_api",
    "verifiedAt": "2026-05-02T11:37:19.657Z",
    "placeId": "ChIJjYXCxfoJxkcRtRgz7wObFVg"
  },
  {
    "id": 162,
    "name": "De Italiaan",
    "lat": 52.3655,
    "lng": 4.8764,
    "area": "Zuid",
    "facing": "S",
    "capacity": "M",
    "vibe": "Italian terrace",
    "address": "Bosboom Toussaintstraat 29",
    "verified": true,
    "coordSource": "places_api",
    "verifiedAt": "2026-05-02T11:37:20.041Z",
    "placeId": "ChIJh5RHF-cJxkcREuHP3IZX1yY"
  },
  {
    "id": 163,
    "name": "Café Loetje",
    "lat": 52.35438,
    "lng": 4.88417,
    "area": "Zuid",
    "facing": "SW",
    "capacity": "M",
    "vibe": "Steak terrace",
    "address": "Johannes Vermeerstraat 52",
    "verified": true,
    "coordSource": "places_api",
    "verifiedAt": "2026-05-02T11:37:20.425Z",
    "placeId": "ChIJ4cQymvEJxkcR7DCtnd76R0Q"
  },
  {
    "id": 164,
    "name": "The Butcher Social Club",
    "lat": 52.3554837,
    "lng": 4.8923081999999996,
    "area": "Zuidas",
    "facing": "S",
    "capacity": "M",
    "vibe": "Business district",
    "address": "Albert Cuypstraat 129",
    "verified": true,
    "coordSource": "places_api",
    "verifiedAt": "2026-05-02T11:37:20.808Z",
    "placeId": "ChIJg3dDsvIJxkcRFQ5RmzuG4hM"
  },
  {
    "id": 165,
    "name": "Floor 17",
    "lat": 52.33701,
    "lng": 4.86921,
    "area": "Zuidas",
    "facing": "All",
    "capacity": "M",
    "vibe": "Rooftop Zuidas",
    "address": "Parnassusweg 813",
    "verified": true,
    "coordSource": "places_api",
    "verifiedAt": "2026-05-02T11:37:21.141Z",
    "placeId": "EjpQYXJuYXNzdXN3ZWcgODEzLCBGbG9vciAxNywgMTA4MiBMWiBBbXN0ZXJkYW0sIE5ldGhlcmxhbmRzIiQaIgoWChQKEgnFctwKBgrGRxHsnKaycd-1SRIIRmxvb3IgMTc"
  },
  {
    "id": 166,
    "name": "George Marina",
    "lat": 52.33948,
    "lng": 4.87198,
    "area": "Zuidas",
    "facing": "S",
    "capacity": "M",
    "vibe": "Waterside",
    "address": "De Boelelaan 2",
    "verified": true
  },
  {
    "id": 167,
    "name": "Ventuno",
    "lat": 52.33828,
    "lng": 4.92091,
    "area": "Zuid",
    "facing": "All",
    "capacity": "M",
    "vibe": "New sky bar",
    "address": "Sparklerweg 201",
    "verified": true,
    "coordSource": "places_api",
    "verifiedAt": "2026-05-02T11:37:21.942Z",
    "placeId": "ChIJPf-l0vYLxkcR96nRe43aIq8"
  },
  {
    "id": 168,
    "name": "CIMA Rooftop Bar",
    "lat": 52.37771,
    "lng": 4.89504,
    "area": "Centrum",
    "facing": "All",
    "capacity": "M",
    "vibe": "Mexican rooftop",
    "address": "Kattengat 1",
    "verified": true,
    "coordSource": "places_api",
    "verifiedAt": "2026-05-02T11:37:22.292Z",
    "placeId": "ChIJpW2Nad4JxkcRVPMoPWh6r1k"
  },
  {
    "id": 170,
    "name": "De Plantage",
    "lat": 52.36675,
    "lng": 4.91248,
    "area": "Plantage",
    "facing": "SW",
    "capacity": "L",
    "vibe": "Grand terrace",
    "address": "Plantage Kerklaan 36",
    "verified": true,
    "coordSource": "places_api",
    "verifiedAt": "2026-05-02T11:37:23.025Z",
    "placeId": "ChIJR4aAeqIJxkcR1WNf8ZIJIgI"
  },
  {
    "id": 171,
    "name": "Café Heffer",
    "lat": 52.365727799999995,
    "lng": 4.910724999999999,
    "area": "Plantage",
    "facing": "E",
    "capacity": "S",
    "vibe": "Corner café",
    "address": "Plantage Muidergracht 4",
    "verified": true,
    "coordSource": "places_api",
    "verifiedAt": "2026-05-02T11:37:23.442Z",
    "placeId": "ChIJtUPKfZgJxkcRdNPf8fT3PHU"
  },
  {
    "id": 172,
    "name": "Amstelhaven",
    "lat": 52.35936,
    "lng": 4.90604,
    "area": "Amstel",
    "facing": "W",
    "capacity": "L",
    "vibe": "Riverside terrace",
    "address": "Mauritskade 1",
    "verified": true,
    "coordSource": "places_api",
    "verifiedAt": "2026-05-02T11:37:23.808Z",
    "placeId": "ChIJGYfrDZoJxkcR7b7PdqcF6FQ"
  },
  {
    "id": 173,
    "name": "Bar Amstelhoek",
    "lat": 52.34861,
    "lng": 4.90306,
    "area": "Amstel",
    "facing": "S",
    "capacity": "M",
    "vibe": "Amstel view",
    "address": "Amsteldijk 2",
    "verified": true,
    "coordSource": "places_api",
    "verifiedAt": "2026-05-02T11:37:24.205Z",
    "placeId": "ChIJ5_eck4gJxkcRlpTvkLnwy_4"
  },
  {
    "id": 174,
    "name": "Café Magere Brug",
    "lat": 52.36369,
    "lng": 4.90323,
    "area": "Amstel",
    "facing": "S",
    "capacity": "S",
    "vibe": "Bridge view",
    "address": "Amstel 81",
    "verified": true,
    "coordSource": "places_api",
    "verifiedAt": "2026-05-02T11:37:24.588Z",
    "placeId": "ChIJu6jwV5YJxkcRiwoVtcybCiM"
  },
  {
    "id": 175,
    "name": "Halvemaan",
    "lat": 52.35798,
    "lng": 4.90548,
    "area": "Amstel",
    "facing": "W",
    "capacity": "M",
    "vibe": "Riverside café",
    "address": "Amsteldijk 42",
    "verified": true
  },
  {
    "id": 177,
    "name": "Meneer Nieges",
    "lat": 52.3655,
    "lng": 4.88348,
    "area": "9 Straatjes",
    "facing": "S",
    "capacity": "S",
    "vibe": "Cocktails",
    "address": "Keizersgracht 302",
    "verified": true
  },
  {
    "id": 178,
    "name": "Screaming Beans",
    "lat": 52.36896,
    "lng": 4.8839,
    "area": "9 Straatjes",
    "facing": "S",
    "capacity": "S",
    "vibe": "Specialty coffee",
    "address": "Hartenstraat 12",
    "verified": true,
    "coordSource": "places_api",
    "verifiedAt": "2026-05-02T11:37:26.005Z",
    "placeId": "ChIJobHenXUJxkcRwZXqlB-XlzA",
    "category": [
      "coffee"
    ],
    "googleRating": 4.7,
    "googleReviewCount": 731
  },
  {
    "id": 179,
    "name": "Van Zuylen",
    "lat": 52.37458,
    "lng": 4.88985,
    "area": "9 Straatjes",
    "facing": "W",
    "capacity": "S",
    "vibe": "Canal corner",
    "address": "Torensteeg 8",
    "verified": true,
    "coordSource": "places_api",
    "verifiedAt": "2026-05-02T11:37:26.371Z",
    "placeId": "ChIJWdGrhsYJxkcRLmR1IePEuc0"
  },
  {
    "id": 180,
    "name": "Café de Pels",
    "lat": 52.36876,
    "lng": 4.88526,
    "area": "9 Straatjes",
    "facing": "E",
    "capacity": "S",
    "vibe": "Neighbourhood",
    "address": "Huidenstraat 25",
    "verified": true,
    "coordSource": "places_api",
    "verifiedAt": "2026-05-02T11:37:26.721Z",
    "placeId": "ChIJd5pJWcIJxkcREB4G0Sf5EvE"
  },
  {
    "id": 181,
    "name": "Café Soleil",
    "lat": 52.366,
    "lng": 4.884,
    "area": "9 Straatjes",
    "facing": "S",
    "capacity": "S",
    "vibe": "Sun chasing",
    "address": "Wolvenstraat 14",
    "verified": true
  },
  {
    "id": 182,
    "name": "Café Vyne",
    "lat": 52.3843793,
    "lng": 4.8831798,
    "area": "Haarlemmerbrt",
    "facing": "S",
    "capacity": "S",
    "vibe": "Wine bar",
    "address": "Haarlemmerdijk 131",
    "verified": true,
    "coordSource": "places_api",
    "verifiedAt": "2026-05-02T11:37:27.425Z",
    "placeId": "ChIJcx6x3qkJxkcRtrfcyEn4VLU"
  },
  {
    "id": 183,
    "name": "Café Staal",
    "lat": 52.38048,
    "lng": 4.89198,
    "area": "Haarlemmerbrt",
    "facing": "E",
    "capacity": "S",
    "vibe": "Corner classic",
    "address": "Haarlemmerstraat 40",
    "verified": true
  },
  {
    "id": 184,
    "name": "Café Vrijdag",
    "lat": 52.34667,
    "lng": 4.91111,
    "area": "Rivierenbuurt",
    "facing": "S",
    "capacity": "M",
    "vibe": "Friday vibes",
    "address": "Uiterwaardenstraat 247",
    "verified": true,
    "coordSource": "places_api",
    "verifiedAt": "2026-05-02T11:37:28.137Z",
    "placeId": "ChIJGb9v0oAJxkcRi95rEb68F7U"
  },
  {
    "id": 185,
    "name": "IJscuypje",
    "lat": 52.35583,
    "lng": 4.89314,
    "area": "Rivierenbuurt",
    "facing": "S",
    "capacity": "S",
    "vibe": "Ice cream sun",
    "address": "Lutmastraat 175",
    "verified": true
  },
  {
    "id": 186,
    "name": "Vessel",
    "lat": 52.37648,
    "lng": 4.91398,
    "area": "Centrum",
    "facing": "S",
    "capacity": "M",
    "vibe": "IJ morning sun",
    "address": "Oosterdoksstraat 14",
    "verified": true
  },
  {
    "id": 187,
    "name": "Blijburg",
    "lat": 52.35798,
    "lng": 4.95798,
    "area": "IJburg",
    "facing": "S",
    "capacity": "L",
    "vibe": "City beach",
    "address": "Muiderlaan 1001",
    "verified": true
  },
  {
    "id": 188,
    "name": "Nautisch Kwartier",
    "lat": 52.35698,
    "lng": 4.95198,
    "area": "IJburg",
    "facing": "SW",
    "capacity": "M",
    "vibe": "Harbour café",
    "address": "Bert Haanstrakade 2",
    "verified": true
  },
  {
    "id": 189,
    "name": "W Lounge",
    "lat": 52.37302,
    "lng": 4.88984,
    "area": "Centrum",
    "facing": "All",
    "capacity": "M",
    "vibe": "W Hotel rooftop",
    "address": "Spuistraat 175",
    "verified": true,
    "coordSource": "places_api",
    "verifiedAt": "2026-05-02T11:37:30.055Z",
    "placeId": "ChIJ9yAzpcYJxkcRadnouM6tu3g"
  },
  {
    "id": 191,
    "name": "Zoku Rooftop",
    "lat": 52.36379,
    "lng": 4.90673,
    "area": "Oost",
    "facing": "All",
    "capacity": "M",
    "vibe": "Co-working rooftop",
    "address": "Weesperstraat 105",
    "verified": true,
    "coordSource": "places_api",
    "verifiedAt": "2026-05-02T11:37:30.438Z",
    "placeId": "ChIJg7ICg5cJxkcRCIT2umWTRe0"
  },
  {
    "id": 192,
    "name": "Blue Amsterdam",
    "lat": 52.36743,
    "lng": 4.89149,
    "area": "Centrum",
    "facing": "All",
    "capacity": "M",
    "vibe": "Kalvertoren views",
    "address": "Singel 457",
    "verified": true,
    "coordSource": "places_api",
    "verifiedAt": "2026-05-02T11:37:30.787Z",
    "placeId": "ChIJI4xu08EJxkcRe2_KVZ_zFys"
  },
  {
    "id": 193,
    "name": "NEMO Rooftop",
    "lat": 52.37417,
    "lng": 4.91233,
    "area": "Centrum",
    "facing": "All",
    "capacity": "L",
    "vibe": "Science museum",
    "address": "Oosterdok 2",
    "verified": true,
    "coordSource": "places_api",
    "verifiedAt": "2026-05-02T11:37:31.137Z",
    "placeId": "ChIJm7tV_qQJxkcRvM4CYqK9SMc"
  },
  {
    "id": 194,
    "name": "Skybar Malabar",
    "lat": 52.37941,
    "lng": 4.92239,
    "area": "Oost",
    "facing": "All",
    "capacity": "M",
    "vibe": "Hotel Jakarta",
    "address": "Javakade 766",
    "verified": true,
    "coordSource": "places_api",
    "verifiedAt": "2026-05-02T11:37:31.472Z",
    "placeId": "ChIJU6U-8oIJxkcRsVNK7ppTK7o"
  },
  {
    "id": 195,
    "name": "Twenty Third Bar",
    "lat": 52.3487,
    "lng": 4.89393,
    "area": "Zuid",
    "facing": "All",
    "capacity": "M",
    "vibe": "Hotel Okura",
    "address": "Ferdinand Bolstraat 333",
    "verified": true,
    "coordSource": "places_api",
    "verifiedAt": "2026-05-02T11:37:31.821Z",
    "placeId": "ChIJMzqLEIsJxkcR2ZTRVcFRHDU"
  },
  {
    "id": 196,
    "name": "Café Alto",
    "lat": 52.36351,
    "lng": 4.88447,
    "area": "Leidseplein",
    "facing": "S",
    "capacity": "S",
    "vibe": "Jazz café",
    "address": "Korte Leidsedwarsstraat 115",
    "verified": true,
    "coordSource": "places_api",
    "verifiedAt": "2026-05-02T11:37:32.173Z",
    "placeId": "ChIJab4tH-kJxkcRsZ3Tp2_ZpBE"
  },
  {
    "id": 197,
    "name": "Café t Centrum",
    "lat": 52.36611,
    "lng": 4.89556,
    "area": "Rembrandtplein",
    "facing": "S",
    "capacity": "S",
    "vibe": "Old Dutch bar",
    "address": "Rembrandtplein 5",
    "verified": true,
    "coordSource": "places_api",
    "verifiedAt": "2026-05-02T11:37:32.621Z",
    "placeId": "ChIJuRsfW5UJxkcROl9SVSjuYnI"
  },
  {
    "id": 198,
    "name": "Hoopman",
    "lat": 52.3646,
    "lng": 4.88301,
    "area": "Leidseplein",
    "facing": "S",
    "capacity": "L",
    "vibe": "Irish terrace",
    "address": "Leidseplein 17",
    "verified": true,
    "coordSource": "places_api",
    "verifiedAt": "2026-05-02T11:37:32.971Z",
    "placeId": "ChIJEf2gWOgJxkcRevGwnHGDgWg"
  },
  {
    "id": 199,
    "name": "De Zotte",
    "lat": 52.36608,
    "lng": 4.88103,
    "area": "Leidseplein",
    "facing": "S",
    "capacity": "S",
    "vibe": "Belgian beer pub",
    "address": "Raamstraat 29",
    "verified": true,
    "coordSource": "places_api",
    "verifiedAt": "2026-05-02T11:37:33.322Z",
    "placeId": "ChIJpSqo4ecJxkcRKABPNUOZ-RM"
  },
  {
    "id": 200,
    "name": "Café Waterhole",
    "lat": 52.36486,
    "lng": 4.88259,
    "area": "Leidseplein",
    "facing": "S",
    "capacity": "M",
    "vibe": "Live music",
    "address": "Korte Leidsedwarsstraat 49",
    "verified": true,
    "coordSource": "places_api",
    "verifiedAt": "2026-05-02T11:37:33.687Z",
    "placeId": "ChIJZ2wmXugJxkcRm0XUq9Ibeog"
  },
  {
    "id": 201,
    "name": "Nel",
    "lat": 52.36221,
    "lng": 4.89669,
    "area": "Centrum",
    "facing": "S",
    "capacity": "S",
    "vibe": "Amstelveld terrace",
    "address": "Amstelveld 12",
    "verified": true,
    "coordSource": "places_api",
    "verifiedAt": "2026-05-02T11:37:34.038Z",
    "placeId": "ChIJ4cRHiZQJxkcRbuVu8nkN4s0"
  },
  {
    "id": 202,
    "name": "Café Kadijk",
    "lat": 52.37014,
    "lng": 4.91211,
    "area": "Plantage",
    "facing": "S",
    "capacity": "S",
    "vibe": "Eetcafé",
    "address": "Kadijksplein 5",
    "verified": true,
    "coordSource": "places_api",
    "verifiedAt": "2026-05-02T11:37:34.405Z",
    "placeId": "ChIJjQ8un6MJxkcRC7oKDptddUI"
  },
  {
    "id": 203,
    "name": "Café Krom",
    "lat": 52.36295,
    "lng": 4.89855,
    "area": "Centrum",
    "facing": "S",
    "capacity": "S",
    "vibe": "Utrechtsestraat",
    "address": "Utrechtsestraat 76",
    "verified": true,
    "coordSource": "places_api",
    "verifiedAt": "2026-05-02T11:37:34.754Z",
    "placeId": "ChIJR-WSRpQJxkcREz4wbH2rmtQ"
  },
  {
    "id": 204,
    "name": "Le Patron",
    "lat": 52.36019,
    "lng": 4.89123,
    "area": "Centrum",
    "facing": "S",
    "capacity": "S",
    "vibe": "Wine terrace",
    "address": "Vijzelgracht 63",
    "verified": true,
    "coordSource": "places_api",
    "verifiedAt": "2026-05-02T11:37:35.154Z",
    "placeId": "ChIJze41k-wJxkcRnWOSZW0LeD4"
  },
  {
    "id": 205,
    "name": "De Bierhut",
    "lat": 52.3645,
    "lng": 4.9225,
    "area": "Oost",
    "facing": "S",
    "capacity": "S",
    "vibe": "Beer terrace",
    "address": "Stentorstraat 5",
    "verified": true
  },
  {
    "id": 206,
    "name": "Café Bascule",
    "lat": 52.39957,
    "lng": 4.93467,
    "area": "Noord",
    "facing": "S",
    "capacity": "S",
    "vibe": "Neighbourhood",
    "address": "Buikslotermeerplein 10",
    "verified": true,
    "coordSource": "places_api",
    "verifiedAt": "2026-05-02T11:37:35.886Z",
    "placeId": "ChIJZbf42PAIxkcRuH0SrETS2IE"
  },
  {
    "id": 207,
    "name": "Oslo Beers",
    "lat": 52.35767,
    "lng": 4.85424,
    "area": "West",
    "facing": "S",
    "capacity": "M",
    "vibe": "Craft beer terrace",
    "address": "Tussen de Bogen 2",
    "verified": true,
    "coordSource": "places_api",
    "verifiedAt": "2026-05-02T11:37:36.256Z",
    "placeId": "ChIJK6iWWAXixUcRiq_LS4jCsUQ"
  },
  {
    "id": 209,
    "name": "Fabus",
    "lat": 52.36999,
    "lng": 4.86669,
    "area": "West",
    "facing": "S",
    "capacity": "S",
    "vibe": "Women-led wine bar",
    "address": "Admiraal de Ruijterweg 56",
    "verified": true,
    "coordSource": "places_api",
    "verifiedAt": "2026-05-02T11:37:36.604Z",
    "placeId": "ChIJmdopKPHjxUcRfDcdHnAz0L0"
  },
  {
    "id": 210,
    "name": "Hotel Buiten",
    "lat": 52.38262,
    "lng": 4.85793,
    "area": "West",
    "facing": "S",
    "capacity": "M",
    "vibe": "Creative hub",
    "address": "Bos en Lommerweg 76",
    "verified": true,
    "coordSource": "places_api",
    "verifiedAt": "2026-05-02T11:37:37.271Z",
    "placeId": "ChIJPbs63WTixUcRMmYthwizpbU"
  },
  {
    "id": 211,
    "name": "Karavaan",
    "lat": 52.3689651,
    "lng": 4.870426999999999,
    "area": "De Baarsjes",
    "facing": "S",
    "capacity": "M",
    "vibe": "30 tables terrace",
    "address": "Admiraal de Ruijterweg 179",
    "verified": true,
    "coordSource": "places_api",
    "verifiedAt": "2026-05-02T11:37:37.64Z",
    "placeId": "ChIJxfmdNGYJxkcRZFuQNMsdX4I"
  },
  {
    "id": 212,
    "name": "Café Vita Lente",
    "lat": 52.36363,
    "lng": 4.86323,
    "area": "West",
    "facing": "S",
    "capacity": "S",
    "vibe": "New in West",
    "address": "Jan Pieter Heijestraat 130",
    "verified": true,
    "coordSource": "places_api",
    "verifiedAt": "2026-05-02T11:37:38.004Z",
    "placeId": "ChIJEw_Gj2HjxUcRYkqQUIE324Y"
  },
  {
    "id": 213,
    "name": "Dilettante",
    "lat": 52.35588,
    "lng": 4.8885,
    "area": "De Pijp",
    "facing": "S",
    "capacity": "S",
    "vibe": "Natural wine",
    "address": "Saenredamstraat 37",
    "verified": true,
    "coordSource": "places_api",
    "verifiedAt": "2026-05-02T11:37:38.354Z",
    "placeId": "ChIJ8aiGCIEJxkcR64bTuC2Aeqk"
  },
  {
    "id": 214,
    "name": "Oocker",
    "lat": 52.36139,
    "lng": 4.90057,
    "area": "Oost",
    "facing": "S",
    "capacity": "S",
    "vibe": "Wine + sun trap",
    "address": "Czaar Peterstraat 99",
    "verified": true,
    "coordSource": "places_api",
    "verifiedAt": "2026-05-02T11:37:38.687Z",
    "placeId": "ChIJJ-GI7zIJxkcRRZmMA-yM5ko"
  },
  {
    "id": 215,
    "name": "R de Rosa",
    "lat": 52.37908,
    "lng": 4.88463,
    "area": "Jordaan",
    "facing": "S",
    "capacity": "S",
    "vibe": "Queer bar terrace",
    "address": "Prinsengracht 119",
    "verified": true,
    "coordSource": "places_api",
    "verifiedAt": "2026-05-02T11:37:39.037Z",
    "placeId": "ChIJX09Y9QYJxkcR2hfBTql7k8k"
  },
  {
    "id": 216,
    "name": "Café Vlaming",
    "lat": 52.36502,
    "lng": 4.92593,
    "area": "Oost",
    "facing": "S",
    "capacity": "S",
    "vibe": "Dappermarkt new",
    "address": "Dapperstraat 10",
    "verified": true,
    "coordSource": "places_api",
    "verifiedAt": "2026-05-02T11:37:39.371Z",
    "placeId": "ChIJjYcxSgQJxkcR4jhvd-HxS0s"
  },
  {
    "id": 217,
    "name": "De Kleine Bes",
    "lat": 52.36479,
    "lng": 4.92504,
    "area": "Oost",
    "facing": "S",
    "capacity": "S",
    "vibe": "Neighbourhood new",
    "address": "Mauritskade 100A",
    "verified": true,
    "coordSource": "places_api",
    "verifiedAt": "2026-05-02T11:37:39.721Z",
    "placeId": "ChIJVxnkp7IJxkcRLM73VioNYew"
  },
  {
    "id": 218,
    "name": "Sol",
    "lat": 52.3601393,
    "lng": 4.877841399999999,
    "area": "Oud-West",
    "facing": "S",
    "capacity": "S",
    "vibe": "Living room café",
    "address": "Overtoom 50",
    "verified": true,
    "coordSource": "places_api",
    "verifiedAt": "2026-05-02T11:37:40.088Z",
    "placeId": "ChIJm6BRL_8JxkcRlkEt2Hif5VM"
  },
  {
    "id": 219,
    "name": "Jinja",
    "lat": 52.37023,
    "lng": 4.86803,
    "area": "West",
    "facing": "S",
    "capacity": "M",
    "vibe": "Asian kitchen bar",
    "address": "De Clercqstraat 79h",
    "verified": true,
    "coordSource": "places_api",
    "verifiedAt": "2026-05-02T11:37:40.438Z",
    "placeId": "ChIJ23kOs2XjxUcRtBs7IoWtMtA"
  },
  {
    "id": 220,
    "name": "Cantine de Caron",
    "lat": 52.38634,
    "lng": 4.87282,
    "area": "Haarlemmerbrt",
    "facing": "S",
    "capacity": "S",
    "vibe": "French vibes",
    "address": "Haarlemmerdijk 89",
    "verified": true,
    "coordSource": "places_api",
    "verifiedAt": "2026-05-02T11:37:40.804Z",
    "placeId": "ChIJ0SqUddUJxkcR8_CM6wAlBCI"
  },
  {
    "id": 222,
    "name": "Bar Gouden Hoek II",
    "lat": 52.363931199999996,
    "lng": 4.8832225,
    "area": "Rembrandtplein",
    "facing": "All",
    "capacity": "S",
    "vibe": "Wine terrace",
    "address": "",
    "verified": true,
    "coordSource": "places_api",
    "verifiedAt": "2026-05-02T11:37:41.555Z",
    "placeId": "ChIJp9M2GIUJxkcR2b0p5VX_Sg0"
  },
  {
    "id": 223,
    "name": "Café Dijk",
    "lat": 52.37721,
    "lng": 4.88193,
    "area": "Jordaan",
    "facing": "SE",
    "capacity": "L",
    "vibe": "Student hangout",
    "address": "",
    "verified": true
  },
  {
    "id": 225,
    "name": "Brasserie Molen",
    "lat": 52.37613,
    "lng": 4.87148,
    "area": "Westerpark",
    "facing": "W",
    "capacity": "S",
    "vibe": "Streetside classic",
    "address": "",
    "verified": true
  },
  {
    "id": 227,
    "name": "Koffiehuis Bergeend a/h Plein",
    "lat": 52.3619047,
    "lng": 4.9284129,
    "area": "Plantage",
    "facing": "SE",
    "capacity": "M",
    "vibe": "Waterfront spot",
    "address": "",
    "verified": true,
    "coordSource": "places_api",
    "verifiedAt": "2026-05-02T11:37:43.472Z",
    "placeId": "ChIJFbzpl3MJxkcR7wNnMSOhLZg"
  },
  {
    "id": 230,
    "name": "Lounge Kraai",
    "lat": 52.38567,
    "lng": 4.9143,
    "area": "Noord",
    "facing": "SE",
    "capacity": "L",
    "vibe": "Cozy corner",
    "address": "",
    "verified": true
  },
  {
    "id": 233,
    "name": "Brasserie Nonnetje",
    "lat": 52.37047,
    "lng": 4.88388,
    "area": "9 Straatjes",
    "facing": "SE",
    "capacity": "S",
    "vibe": "Local favourite",
    "address": "",
    "verified": true
  },
  {
    "id": 234,
    "name": "Bar Zaagbek",
    "lat": 52.3482,
    "lng": 4.91299,
    "area": "Amstel",
    "facing": "W",
    "capacity": "L",
    "vibe": "Waterfront spot",
    "address": "",
    "verified": true
  },
  {
    "id": 236,
    "name": "Proeflokaal Zaagbek",
    "lat": 52.36997,
    "lng": 4.88723,
    "area": "Leidseplein",
    "facing": "W",
    "capacity": "S",
    "vibe": "Coffee spot",
    "address": "",
    "verified": true,
    "coordSource": "places_api",
    "verifiedAt": "2026-05-02T11:37:46.288Z",
    "placeId": "ChIJDyPty8MJxkcRjpDqIW6HUFo"
  },
  {
    "id": 237,
    "name": "Brasserie Dolfijn a/h Plein",
    "lat": 52.36564,
    "lng": 4.88528,
    "area": "Centrum",
    "facing": "S",
    "capacity": "L",
    "vibe": "Local favourite",
    "address": "",
    "verified": true
  },
  {
    "id": 238,
    "name": "Bistro Molen",
    "lat": 52.38226,
    "lng": 4.85596,
    "area": "Bos en Lommer",
    "facing": "All",
    "capacity": "S",
    "vibe": "Cozy corner",
    "address": "",
    "verified": true
  },
  {
    "id": 240,
    "name": "Lounge Topper",
    "lat": 52.3574784,
    "lng": 4.8981252,
    "area": "De Pijp",
    "facing": "E",
    "capacity": "L",
    "vibe": "Neighbourhood gem",
    "address": "",
    "verified": true,
    "coordSource": "places_api",
    "verifiedAt": "2026-05-02T11:37:47.455Z",
    "placeId": "ChIJe6b0UgjixUcRXyiZfFsdJZ8"
  },
  {
    "id": 241,
    "name": "Eetcafé Zwaluw",
    "lat": 52.3657537,
    "lng": 4.8824436,
    "area": "9 Straatjes",
    "facing": "All",
    "capacity": "L",
    "vibe": "Sunny square",
    "address": "",
    "verified": true,
    "coordSource": "places_api",
    "verifiedAt": "2026-05-02T11:37:47.871Z",
    "placeId": "ChIJ7f76vwkJxkcRcvuYAGsvTWQ"
  },
  {
    "id": 246,
    "name": "Bar Korhoen",
    "lat": 52.3742029,
    "lng": 4.9047841,
    "area": "Oost",
    "facing": "N",
    "capacity": "L",
    "vibe": "Park-side terrace",
    "address": "",
    "verified": true,
    "coordSource": "places_api",
    "verifiedAt": "2026-05-02T11:37:49.689Z",
    "placeId": "ChIJUWPEsrsJxkcRGitNQKv3hOM"
  },
  {
    "id": 247,
    "name": "Bruin Café Fuut",
    "lat": 52.37721,
    "lng": 4.88193,
    "area": "Jordaan",
    "facing": "SE",
    "capacity": "L",
    "vibe": "Coffee spot",
    "address": "",
    "verified": true
  },
  {
    "id": 252,
    "name": "Café Kievit & Zn",
    "lat": 52.37153,
    "lng": 4.8704,
    "area": "Oud-West",
    "facing": "NW",
    "capacity": "L",
    "vibe": "Local favourite",
    "address": "",
    "verified": true
  },
  {
    "id": 254,
    "name": "Bistro Kievit",
    "lat": 52.38901,
    "lng": 4.88007,
    "area": "Spaarndammer",
    "facing": "All",
    "capacity": "M",
    "vibe": "Modern design",
    "address": "",
    "verified": true
  },
  {
    "id": 256,
    "name": "Lounge Leeuwerik & Zn",
    "lat": 52.363947499999995,
    "lng": 4.9066543000000005,
    "area": "Centrum",
    "facing": "S",
    "capacity": "S",
    "vibe": "Streetside classic",
    "address": "",
    "verified": true,
    "coordSource": "places_api",
    "verifiedAt": "2026-05-02T11:37:52.938Z",
    "placeId": "ChIJ4zFcpt0JxkcRb27k6rUfA0w"
  },
  {
    "id": 257,
    "name": "Bistro Vlinder",
    "lat": 52.35537,
    "lng": 4.89302,
    "area": "De Pijp",
    "facing": "S",
    "capacity": "L",
    "vibe": "Local favourite",
    "address": "",
    "verified": true,
    "coordSource": "places_api",
    "verifiedAt": "2026-05-02T11:37:53.355Z",
    "placeId": "ChIJYUv3UY0JxkcR1ZUeaJNZb9Y"
  },
  {
    "id": 261,
    "name": "Bruin Café Patrijs",
    "lat": 52.378235399999994,
    "lng": 4.8859305,
    "area": "9 Straatjes",
    "facing": "E",
    "capacity": "L",
    "vibe": "Hidden courtyard",
    "address": "",
    "verified": true,
    "coordSource": "places_api",
    "verifiedAt": "2026-05-02T11:37:54.838Z",
    "placeId": "ChIJ-35RhM8JxkcRNK056NuK8Vo"
  },
  {
    "id": 262,
    "name": "Koffiehuis Patrijs",
    "lat": 52.34524,
    "lng": 4.89484,
    "area": "Rivierenbuurt",
    "facing": "N",
    "capacity": "M",
    "vibe": "Sunny square",
    "address": "",
    "verified": true
  },
  {
    "id": 263,
    "name": "Bistro Korhoen",
    "lat": 52.3805567,
    "lng": 4.8856506,
    "area": "Leidseplein",
    "facing": "W",
    "capacity": "L",
    "vibe": "Urban garden",
    "address": "",
    "verified": true,
    "coordSource": "places_api",
    "verifiedAt": "2026-05-02T11:37:55.572Z",
    "placeId": "ChIJkaGKIGIJxkcRLDqeO4wDXa4"
  },
  {
    "id": 266,
    "name": "Brasserie Topper II",
    "lat": 52.34258,
    "lng": 4.89262,
    "area": "Rivierenbuurt",
    "facing": "W",
    "capacity": "M",
    "vibe": "Modern design",
    "address": "",
    "verified": true
  },
  {
    "id": 267,
    "name": "Brasserie Kreeft",
    "lat": 52.339876999999994,
    "lng": 4.892914900000001,
    "area": "De Pijp",
    "facing": "All",
    "capacity": "M",
    "vibe": "Canal terrace",
    "address": "",
    "verified": true,
    "coordSource": "places_api",
    "verifiedAt": "2026-05-02T11:37:56.388Z",
    "placeId": "ChIJdcB-KyIKxkcRONSXHEVrYJk"
  },
  {
    "id": 268,
    "name": "Brasserie Roos",
    "lat": 52.36046,
    "lng": 4.92542,
    "area": "Oost",
    "facing": "W",
    "capacity": "M",
    "vibe": "Cozy corner",
    "address": "",
    "verified": true
  },
  {
    "id": 269,
    "name": "Koffiehuis Dolfijn",
    "lat": 52.365638,
    "lng": 4.8852817,
    "area": "Haarlemmerbrt",
    "facing": "N",
    "capacity": "L",
    "vibe": "Wine terrace",
    "address": "",
    "verified": true,
    "coordSource": "places_api",
    "verifiedAt": "2026-05-02T11:37:57.121Z",
    "placeId": "ChIJaS6at-kJxkcRvmOwBD_gymk"
  },
  {
    "id": 270,
    "name": "Proeflokaal Kolibri & Co",
    "lat": 52.380947400000004,
    "lng": 4.884013899999999,
    "area": "Centrum",
    "facing": "SE",
    "capacity": "M",
    "vibe": "Wine terrace",
    "address": "",
    "verified": true,
    "coordSource": "places_api",
    "verifiedAt": "2026-05-02T11:37:57.488Z",
    "placeId": "ChIJc3GqKc4JxkcRx05b2w9-M50"
  },
  {
    "id": 271,
    "name": "Grand Café Leeuwerik",
    "lat": 52.3417969,
    "lng": 4.8900422,
    "area": "De Pijp",
    "facing": "S",
    "capacity": "L",
    "vibe": "Industrial chic",
    "address": "",
    "verified": true,
    "coordSource": "places_api",
    "verifiedAt": "2026-05-02T11:37:57.856Z",
    "placeId": "ChIJPwbsYR8KxkcRvSZKO8mREco"
  },
  {
    "id": 272,
    "name": "Bruin Café Zwaan",
    "lat": 52.37636,
    "lng": 4.88422,
    "area": "Leidseplein",
    "facing": "W",
    "capacity": "L",
    "vibe": "Beer garden",
    "address": "",
    "verified": true,
    "coordSource": "places_api",
    "verifiedAt": "2026-05-02T11:37:58.255Z",
    "placeId": "ChIJ3d9HP8UJxkcRjTZAEeg6yNE"
  },
  {
    "id": 273,
    "name": "Eetcafé Leeuwerik",
    "lat": 52.36355,
    "lng": 4.88486,
    "area": "Leidseplein",
    "facing": "S",
    "capacity": "M",
    "vibe": "Sunny square",
    "address": "",
    "verified": true
  },
  {
    "id": 275,
    "name": "Bar Duif",
    "lat": 52.36142,
    "lng": 4.89673,
    "area": "Leidseplein",
    "facing": "SE",
    "capacity": "L",
    "vibe": "Industrial chic",
    "address": "",
    "verified": true,
    "coordSource": "places_api",
    "verifiedAt": "2026-05-02T11:37:59.005Z",
    "placeId": "ChIJD0Y7gZQJxkcRTd9GiBeCMwQ"
  },
  {
    "id": 281,
    "name": "Bistro Merel",
    "lat": 52.36413,
    "lng": 4.8983,
    "area": "Rembrandtplein",
    "facing": "SW",
    "capacity": "M",
    "vibe": "Student hangout",
    "address": "",
    "verified": true,
    "coordSource": "places_api",
    "verifiedAt": "2026-05-02T11:38:00.088Z",
    "placeId": "ChIJFX-OmpQJxkcRcF18TZlXxsw"
  },
  {
    "id": 282,
    "name": "Eetcafé Molen",
    "lat": 52.36721,
    "lng": 4.88287,
    "area": "De Pijp",
    "facing": "NE",
    "capacity": "M",
    "vibe": "Wine terrace",
    "address": "",
    "verified": true,
    "coordSource": "places_api",
    "verifiedAt": "2026-05-02T11:38:00.474Z",
    "placeId": "ChIJ39AuHugJxkcRXpYMcnD00eI"
  },
  {
    "id": 283,
    "name": "Proeflokaal Haas",
    "lat": 52.38608,
    "lng": 4.87282,
    "area": "Westerpark",
    "facing": "N",
    "capacity": "L",
    "vibe": "Beer garden",
    "address": "",
    "verified": true
  },
  {
    "id": 285,
    "name": "Koffiehuis Spreeuw",
    "lat": 52.35709,
    "lng": 4.9177,
    "area": "Amstelkwartier",
    "facing": "N",
    "capacity": "M",
    "vibe": "Cozy corner",
    "address": "",
    "verified": true
  },
  {
    "id": 286,
    "name": "Koffiehuis Ekster & Zn",
    "lat": 52.3637788,
    "lng": 4.886993599999999,
    "area": "De Baarsjes",
    "facing": "NW",
    "capacity": "S",
    "vibe": "Hidden courtyard",
    "address": "",
    "verified": true,
    "coordSource": "places_api",
    "verifiedAt": "2026-05-02T11:38:01.906Z",
    "placeId": "ChIJ1cJdWOE0xEcRKegOmnH2_Bc"
  },
  {
    "id": 287,
    "name": "Grand Café Zaagbek a/d Gracht",
    "lat": 52.3812,
    "lng": 4.87011,
    "area": "Westerpark",
    "facing": "S",
    "capacity": "S",
    "vibe": "Neighbourhood gem",
    "address": "",
    "verified": true
  },
  {
    "id": 289,
    "name": "Café Leeuwerik",
    "lat": 52.37153,
    "lng": 4.8704,
    "area": "Oud-West",
    "facing": "SE",
    "capacity": "M",
    "vibe": "Modern design",
    "address": "",
    "verified": true
  },
  {
    "id": 291,
    "name": "Café Kolibri",
    "lat": 52.39148,
    "lng": 4.87843,
    "area": "Spaarndammer",
    "facing": "W",
    "capacity": "L",
    "vibe": "Sunny square",
    "address": "",
    "verified": true
  },
  {
    "id": 292,
    "name": "Koffiehuis Wulp II",
    "lat": 52.3669715,
    "lng": 4.894145099999999,
    "area": "De Pijp",
    "facing": "NE",
    "capacity": "L",
    "vibe": "Hidden courtyard",
    "address": "",
    "verified": true,
    "coordSource": "places_api",
    "verifiedAt": "2026-05-02T11:38:04.122Z",
    "placeId": "ChIJxU3mA8AJxkcRZBaxdFH9zqw"
  },
  {
    "id": 296,
    "name": "Brasserie Bergeend",
    "lat": 52.35613,
    "lng": 4.89269,
    "area": "De Pijp",
    "facing": "W",
    "capacity": "M",
    "vibe": "Canal terrace",
    "address": "",
    "verified": true
  },
  {
    "id": 297,
    "name": "Grand Café Roos",
    "lat": 52.3586214,
    "lng": 4.8754808,
    "area": "Amstel",
    "facing": "S",
    "capacity": "L",
    "vibe": "Modern design",
    "address": "",
    "verified": true,
    "coordSource": "places_api",
    "verifiedAt": "2026-05-02T11:38:05.621Z",
    "placeId": "ChIJXRB-QQAJxkcRI7QJP6CmLGw"
  },
  {
    "id": 299,
    "name": "Lounge Vos & Zn",
    "lat": 52.37302,
    "lng": 4.88984,
    "area": "Rembrandtplein",
    "facing": "SE",
    "capacity": "M",
    "vibe": "Streetside classic",
    "address": "",
    "verified": true
  },
  {
    "id": 301,
    "name": "Brasserie Zwaluw",
    "lat": 52.35869,
    "lng": 4.88613,
    "area": "Zuid",
    "facing": "All",
    "capacity": "L",
    "vibe": "Rooftop bar",
    "address": "",
    "verified": true
  },
  {
    "id": 302,
    "name": "Bistro Nonnetje",
    "lat": 52.36274,
    "lng": 4.86372,
    "area": "Oud-West",
    "facing": "All",
    "capacity": "L",
    "vibe": "Industrial chic",
    "address": "",
    "verified": true
  },
  {
    "id": 308,
    "name": "Brasserie Korhoen",
    "lat": 52.36679,
    "lng": 4.86791,
    "area": "Oud-West",
    "facing": "E",
    "capacity": "S",
    "vibe": "Wine terrace",
    "address": "",
    "verified": true
  },
  {
    "id": 310,
    "name": "Koffiehuis Korhoen II",
    "lat": 52.35213,
    "lng": 4.88529,
    "area": "Zuid",
    "facing": "E",
    "capacity": "M",
    "vibe": "Urban garden",
    "address": "",
    "verified": true
  },
  {
    "id": 315,
    "name": "Lounge Dijk",
    "lat": 52.367605600000005,
    "lng": 4.8940722,
    "area": "Rembrandtplein",
    "facing": "NE",
    "capacity": "S",
    "vibe": "Cozy corner",
    "address": "",
    "verified": true,
    "coordSource": "places_api",
    "verifiedAt": "2026-05-02T11:38:11.605Z",
    "placeId": "ChIJw0-tDsAJxkcR7duHFlAm7K8"
  },
  {
    "id": 321,
    "name": "Eetcafé Walvis a/d Gracht",
    "lat": 52.37249,
    "lng": 4.89705,
    "area": "Rembrandtplein",
    "facing": "NW",
    "capacity": "M",
    "vibe": "Historic setting",
    "address": "",
    "verified": true,
    "coordSource": "places_api",
    "verifiedAt": "2026-05-02T11:38:12.773Z",
    "placeId": "ChIJhyGpBQAJxkcRdPY4Bp03ehk"
  },
  {
    "id": 324,
    "name": "Lounge Fazant",
    "lat": 52.36813,
    "lng": 4.84407,
    "area": "West",
    "facing": "W",
    "capacity": "M",
    "vibe": "Cozy corner",
    "address": "",
    "verified": true
  },
  {
    "id": 328,
    "name": "Eetcafé Gracht",
    "lat": 52.368914999999994,
    "lng": 4.8874492,
    "area": "Haarlemmerbrt",
    "facing": "W",
    "capacity": "L",
    "vibe": "Waterfront spot",
    "address": "",
    "verified": true,
    "coordSource": "places_api",
    "verifiedAt": "2026-05-02T11:38:14.773Z",
    "placeId": "ChIJXz1PJcIJxkcRwNRJoAj7-Kc"
  },
  {
    "id": 339,
    "name": "Café Hert & Zn",
    "lat": 52.365264499999995,
    "lng": 4.902307599999999,
    "area": "Rembrandtplein",
    "facing": "NE",
    "capacity": "M",
    "vibe": "Cozy corner",
    "address": "",
    "verified": true,
    "coordSource": "places_api",
    "verifiedAt": "2026-05-02T11:38:18.006Z",
    "placeId": "ChIJtYjZgp4JxkcR8gTDhBBxkKw"
  },
  {
    "id": 343,
    "name": "Brasserie Kievit",
    "lat": 52.36397,
    "lng": 4.8823,
    "area": "Leidseplein",
    "facing": "SE",
    "capacity": "M",
    "vibe": "Canal terrace",
    "address": "",
    "verified": true
  },
  {
    "id": 344,
    "name": "Proeflokaal Zwaan II",
    "lat": 52.359834899999996,
    "lng": 4.8602099999999995,
    "area": "Bos en Lommer",
    "facing": "NW",
    "capacity": "L",
    "vibe": "Industrial chic",
    "address": "",
    "verified": true,
    "coordSource": "places_api",
    "verifiedAt": "2026-05-02T11:38:19.566Z",
    "placeId": "ChIJCYGeh1bjxUcR5Q9Q1eIdZlA"
  },
  {
    "id": 347,
    "name": "Bar IJseend",
    "lat": 52.376731199999995,
    "lng": 4.8892983,
    "area": "Haarlemmerbrt",
    "facing": "N",
    "capacity": "L",
    "vibe": "Streetside classic",
    "address": "",
    "verified": true,
    "coordSource": "places_api",
    "verifiedAt": "2026-05-02T11:38:20.673Z",
    "placeId": "ChIJx_aU48UJxkcRxOEtx6d5Lng"
  },
  {
    "id": 350,
    "name": "Koffiehuis Gouden Hoek",
    "lat": 52.37233,
    "lng": 4.88325,
    "area": "Rembrandtplein",
    "facing": "SE",
    "capacity": "S",
    "vibe": "Student hangout",
    "address": "",
    "verified": true,
    "coordSource": "places_api",
    "verifiedAt": "2026-05-02T11:38:21.439Z",
    "placeId": "ChIJNSdlt8IJxkcRRXBIXr6BDTw"
  },
  {
    "id": 354,
    "name": "Lounge Slobeend",
    "lat": 52.36,
    "lng": 4.90517,
    "area": "Amstel",
    "facing": "SE",
    "capacity": "L",
    "vibe": "Hidden courtyard",
    "address": "",
    "verified": true
  },
  {
    "id": 355,
    "name": "Proeflokaal Hert",
    "lat": 52.36669,
    "lng": 4.92643,
    "area": "Indische Buurt",
    "facing": "NW",
    "capacity": "M",
    "vibe": "Wine terrace",
    "address": "",
    "verified": true
  },
  {
    "id": 358,
    "name": "Koffiehuis Uil",
    "lat": 52.34059,
    "lng": 4.8735,
    "area": "Zuidas",
    "facing": "All",
    "capacity": "L",
    "vibe": "Sunny square",
    "address": "",
    "verified": true
  },
  {
    "id": 359,
    "name": "Lounge Bergeend",
    "lat": 52.3785058,
    "lng": 4.8952427,
    "area": "Haarlemmerbrt",
    "facing": "W",
    "capacity": "L",
    "vibe": "Park-side terrace",
    "address": "",
    "verified": true,
    "coordSource": "places_api",
    "verifiedAt": "2026-05-02T11:38:24.601Z",
    "placeId": "ChIJE7kBFcgJxkcRt93dXpydHnE"
  },
  {
    "id": 361,
    "name": "Bar Uil",
    "lat": 52.3656295,
    "lng": 4.8966598,
    "area": "De Pijp",
    "facing": "All",
    "capacity": "S",
    "vibe": "Student hangout",
    "address": "",
    "verified": true,
    "coordSource": "places_api",
    "verifiedAt": "2026-05-02T11:38:25.406Z",
    "placeId": "ChIJj_0__IgJxkcRy_PlHlnl93I"
  },
  {
    "id": 362,
    "name": "Grand Café Korhoen",
    "lat": 52.37273,
    "lng": 4.89445,
    "area": "9 Straatjes",
    "facing": "W",
    "capacity": "L",
    "vibe": "Hidden courtyard",
    "address": "",
    "verified": true,
    "coordSource": "places_api",
    "verifiedAt": "2026-05-02T11:38:25.757Z",
    "placeId": "ChIJsfwjUMcJxkcRajOm1t-X8iU",
    "category": [
      "coffee"
    ],
    "googleRating": 4.5,
    "googleReviewCount": 617
  },
  {
    "id": 367,
    "name": "Grand Café Slobeend a/h Plein",
    "lat": 52.34909,
    "lng": 4.93759,
    "area": "Indische Buurt",
    "facing": "E",
    "capacity": "L",
    "vibe": "Hidden courtyard",
    "address": "",
    "verified": true
  },
  {
    "id": 368,
    "name": "Bar Merel",
    "lat": 52.355167400000006,
    "lng": 4.8804178,
    "area": "Leidseplein",
    "facing": "W",
    "capacity": "M",
    "vibe": "Sunny square",
    "address": "",
    "verified": true,
    "coordSource": "places_api",
    "verifiedAt": "2026-05-02T11:38:28.274Z",
    "placeId": "ChIJ0fOrC2IJxkcRGPmi4T3ZfSs"
  },
  {
    "id": 369,
    "name": "Proeflokaal Toren",
    "lat": 52.39362,
    "lng": 4.86731,
    "area": "Houthavens",
    "facing": "NW",
    "capacity": "L",
    "vibe": "Industrial chic",
    "address": "",
    "verified": true
  },
  {
    "id": 370,
    "name": "Bistro Meeuw & Zn",
    "lat": 52.36937700000001,
    "lng": 4.892668,
    "area": "Jordaan",
    "facing": "SE",
    "capacity": "S",
    "vibe": "Modern design",
    "address": "",
    "verified": true,
    "coordSource": "places_api",
    "verifiedAt": "2026-05-02T11:38:28.99Z",
    "placeId": "ChIJq6hhWMAJxkcR0dLgPLP0f0o"
  },
  {
    "id": 371,
    "name": "Grand Café Toren",
    "lat": 52.36675,
    "lng": 4.91248,
    "area": "Plantage",
    "facing": "W",
    "capacity": "L",
    "vibe": "Historic setting",
    "address": "",
    "verified": true
  },
  {
    "id": 374,
    "name": "Café Zwaan",
    "lat": 52.35983,
    "lng": 4.86021,
    "area": "De Baarsjes",
    "facing": "SW",
    "capacity": "S",
    "vibe": "Wine terrace",
    "address": "",
    "verified": true
  },
  {
    "id": 375,
    "name": "Bistro Uil",
    "lat": 52.35612,
    "lng": 4.92729,
    "area": "Oost",
    "facing": "S",
    "capacity": "L",
    "vibe": "Cozy corner",
    "address": "",
    "verified": true
  },
  {
    "id": 377,
    "name": "Eetcafé Anker",
    "lat": 52.35079,
    "lng": 4.90329,
    "area": "Rivierenbuurt",
    "facing": "E",
    "capacity": "L",
    "vibe": "Waterfront spot",
    "address": "",
    "verified": true
  },
  {
    "id": 379,
    "name": "Lounge Gracht",
    "lat": 52.36984,
    "lng": 4.86601,
    "area": "West",
    "facing": "N",
    "capacity": "M",
    "vibe": "Local favourite",
    "address": "",
    "verified": true
  },
  {
    "id": 380,
    "name": "Brasserie Haas",
    "lat": 52.370233,
    "lng": 4.880096,
    "area": "De Pijp",
    "facing": "NE",
    "capacity": "L",
    "vibe": "Waterfront spot",
    "address": "",
    "verified": true,
    "coordSource": "places_api",
    "verifiedAt": "2026-05-02T11:38:32.39Z",
    "placeId": "ChIJR63G4NwJxkcR6eBhDUBkrDw"
  },
  {
    "id": 381,
    "name": "Proeflokaal Pijlstaart & Zn",
    "lat": 52.3762917,
    "lng": 4.899905599999999,
    "area": "Spaarndammer",
    "facing": "SE",
    "capacity": "M",
    "vibe": "Neighbourhood gem",
    "address": "",
    "verified": true,
    "coordSource": "places_api",
    "verifiedAt": "2026-05-02T11:38:32.757Z",
    "placeId": "ChIJPfgtzLkJxkcRKOnHxY2ZCuU"
  },
  {
    "id": 382,
    "name": "Eetcafé Kade",
    "lat": 52.353049899999995,
    "lng": 4.8872272,
    "area": "Zuidas",
    "facing": "NE",
    "capacity": "L",
    "vibe": "Rooftop bar",
    "address": "",
    "verified": true,
    "coordSource": "places_api",
    "verifiedAt": "2026-05-02T11:38:33.157Z",
    "placeId": "ChIJ5WuOrEcJxkcRIH6hFsW_klw"
  },
  {
    "id": 383,
    "name": "Bistro Kemphaan",
    "lat": 52.38009,
    "lng": 4.88269,
    "area": "Jordaan",
    "facing": "E",
    "capacity": "M",
    "vibe": "Streetside classic",
    "address": "",
    "verified": true
  },
  {
    "id": 386,
    "name": "Eetcafé Wielewaal",
    "lat": 52.38901,
    "lng": 4.88007,
    "area": "Spaarndammer",
    "facing": "W",
    "capacity": "S",
    "vibe": "Waterfront spot",
    "address": "",
    "verified": true
  },
  {
    "id": 387,
    "name": "Eetcafé Korhoen & Co",
    "lat": 52.38414,
    "lng": 4.86833,
    "area": "Westerpark",
    "facing": "NE",
    "capacity": "L",
    "vibe": "Wine terrace",
    "address": "",
    "verified": true
  },
  {
    "id": 390,
    "name": "Bruin Café Molen",
    "lat": 52.37863,
    "lng": 4.8505,
    "area": "Bos en Lommer",
    "facing": "E",
    "capacity": "L",
    "vibe": "Coffee spot",
    "address": "",
    "verified": true
  },
  {
    "id": 391,
    "name": "Bruin Café Vlinder II",
    "lat": 52.37721,
    "lng": 4.88193,
    "area": "Jordaan",
    "facing": "NW",
    "capacity": "S",
    "vibe": "Student hangout",
    "address": "",
    "verified": true
  },
  {
    "id": 394,
    "name": "Lounge Scholekster",
    "lat": 52.3512744,
    "lng": 4.8968634,
    "area": "Rembrandtplein",
    "facing": "All",
    "capacity": "S",
    "vibe": "Industrial chic",
    "address": "",
    "verified": true,
    "coordSource": "places_api",
    "verifiedAt": "2026-05-02T11:38:36.457Z",
    "placeId": "ChIJuVNcE4wJxkcRLi9aYkHTxxg"
  },
  {
    "id": 395,
    "name": "Eetcafé Merel",
    "lat": 52.3551,
    "lng": 4.89314,
    "area": "De Pijp",
    "facing": "NE",
    "capacity": "S",
    "vibe": "Coffee spot",
    "address": "",
    "verified": true
  },
  {
    "id": 396,
    "name": "Café Adelaar",
    "lat": 52.34609,
    "lng": 4.89965,
    "area": "Rivierenbuurt",
    "facing": "NE",
    "capacity": "M",
    "vibe": "Historic setting",
    "address": "",
    "verified": true
  },
  {
    "id": 397,
    "name": "Grand Café Kolibri",
    "lat": 52.37273,
    "lng": 4.89445,
    "area": "Centrum",
    "facing": "E",
    "capacity": "S",
    "vibe": "Hidden courtyard",
    "address": "",
    "verified": true
  },
  {
    "id": 399,
    "name": "Bistro IJseend",
    "lat": 52.35741,
    "lng": 4.89127,
    "area": "Zuid",
    "facing": "W",
    "capacity": "S",
    "vibe": "Industrial chic",
    "address": "",
    "verified": true
  },
  {
    "id": 401,
    "name": "Koffiehuis Fazant",
    "lat": 52.34861,
    "lng": 4.90306,
    "area": "Amstel",
    "facing": "E",
    "capacity": "M",
    "vibe": "Wine terrace",
    "address": "",
    "verified": true
  },
  {
    "id": 402,
    "name": "Koffiehuis Kreeft",
    "lat": 52.3640546,
    "lng": 4.889094399999999,
    "area": "Centrum",
    "facing": "NE",
    "capacity": "L",
    "vibe": "Streetside classic",
    "address": "",
    "verified": true,
    "coordSource": "places_api",
    "verifiedAt": "2026-05-02T11:38:38.991Z",
    "placeId": "ChIJkXa6y-sJxkcRTvMnFEv41ik"
  },
  {
    "id": 403,
    "name": "Proeflokaal Fazant",
    "lat": 52.35437,
    "lng": 4.89927,
    "area": "De Pijp",
    "facing": "W",
    "capacity": "M",
    "vibe": "Hidden courtyard",
    "address": "",
    "verified": true
  },
  {
    "id": 407,
    "name": "Café Pijlstaart",
    "lat": 52.371723599999996,
    "lng": 4.8792786999999995,
    "area": "Oud-West",
    "facing": "All",
    "capacity": "M",
    "vibe": "Student hangout",
    "address": "",
    "verified": true,
    "coordSource": "places_api",
    "verifiedAt": "2026-05-02T11:44:51.257Z",
    "placeId": "ChIJTQLS5_YJxkcRXsEWE7CCKJo"
  },
  {
    "id": 411,
    "name": "Eetcafé Fazant",
    "lat": 52.38226,
    "lng": 4.85596,
    "area": "Bos en Lommer",
    "facing": "S",
    "capacity": "M",
    "vibe": "Coffee spot",
    "address": "",
    "verified": true
  },
  {
    "id": 416,
    "name": "Grand Café Meeuw",
    "lat": 52.33416,
    "lng": 4.86388,
    "area": "Zuidas",
    "facing": "N",
    "capacity": "L",
    "vibe": "Rooftop bar",
    "address": "",
    "verified": true
  },
  {
    "id": 418,
    "name": "Lounge Leeuw",
    "lat": 52.36305,
    "lng": 4.92388,
    "area": "Watergraafsmeer",
    "facing": "NW",
    "capacity": "S",
    "vibe": "Cozy corner",
    "address": "",
    "verified": true
  },
  {
    "id": 419,
    "name": "Grand Café Kemphaan",
    "lat": 52.36393,
    "lng": 4.88322,
    "area": "Leidseplein",
    "facing": "E",
    "capacity": "L",
    "vibe": "Rooftop bar",
    "address": "",
    "verified": true
  },