id,name,lat,lng,city_slug,category
"7154","Dr. Wines","52.08439200000001","4.29949","den-haag","restaurant_and_bar"
"7155","Restaurant Hudson Voorschoten","52.12439999999999","4.4446615","voorschoten","restaurant"
"7172","Eco Hotel Plantage Rococo","52.4557537","4.6484396","velsen-zuid","restaurant"
"7170","La Petite Soeur","51.9008242","4.4849559","rotterdam","restaurant"
"7045","Maroy Bar","51.1942432","5.7232309","stramproy","bar"
"7180","ZUID4 Food & Drinks","53.1977635","5.7959336","leeuwarden","restaurant"
"7182","Eenrum, Raadhuisstraat","53.36368","6.457859999999999","netherlands","other"
"5932","Badhuis Amsterdam","52.3635346","4.939991799999999","amsterdam","restaurant_and_bar"
"7184","Wilhelminapark","52.0894808","5.1409193","utrecht","other"
"7392","Café Conrad","52.357568","4.8575157","amsterdam","restaurant_and_bar"
"626","Café | Brasserie Internationaal Theater Amsterdam","52.363968","4.882302","amsterdam","restaurant"
"7181","Juni Rotterdam","51.9227846","4.4992418","rotterdam","restaurant_and_bar"
"7183","The Cottage Shop & Deli","52.3566955","4.9271026","amsterdam","restaurant"
"3954","Vito's","52.5125","6.0927778","zwolle","restaurant"
"4725","Joe Mann Paviljoen","51.512686","5.434581400000001","best","restaurant"
"3402","Bij Ernst","52.5596839","4.8569883","de-rijp","restaurant"
"3527","Grand Café Tower","52.2887957","5.9674287","vaassen","restaurant"
"7178","Beachclub Klein Scheveningen","51.9875333","5.0518186","lopikerkapel","other"
"585","Café Restaurant Piet de Gruyter","52.384578","4.875246","amsterdam","restaurant"
"1128","Barpiazza","52.35600789999999","4.880293600000001","amsterdam","restaurant"
"476","Borrelbar","52.3446666","4.8583457","amsterdam","bar"
"7145","Café de Peuk","52.2793331","5.1580837","bussum","bar"
"6774","Pension d`Oude Herberg","51.9871054","5.821104","oosterbeek","restaurant"
"654","Cafe Toussaint","52.3657671","4.8761924","amsterdam","restaurant"
"3683","Eetcafe de Rooie Reiger","51.9938698","5.0928135","vianen","restaurant_and_bar"
"554","Bar Café Louis-Davids Schinkel","52.3465783","4.847339100000001","amsterdam","restaurant"
"1220","Café Brandon","52.3754448","4.886458299999999","amsterdam","bar"
"3261","BOUTIQ","52.3722124","5.217207","almere","restaurant"
"1805","De Gele Kanarie Cafe - Binnenrotte","51.9214649","4.4876493","rotterdam","bar"
"668","Dwaze zaken","52.37659170000001","4.8993917","amsterdam","restaurant_and_bar"
"6566","De Poshoorn","50.8493854","5.701276999999999","maastricht","restaurant"
"790","Bar Centraal","52.3673265","4.866481299999998","amsterdam","bar"
"3198","Brasserie Julia","52.3340023","5.2191666","almere","restaurant"
"1351","Bar Baarsch","52.37044239999999","4.8535769","amsterdam","restaurant"
"4359","De Industrie","51.8498902","5.848217399999998","nijmegen","restaurant"
"1650","Spaghetteria Wittevrouwensingel","52.095192","5.126648999999999","utrecht","restaurant"
"3243","Re-Spons","52.164224","4.4897894","leiden","restaurant"
"2364","Heerlijckheid Havenzicht","51.6016094","4.105050599999999","sint-annaland","restaurant"
"5313","Brasserie De Hooge Rotterdamsche","51.970662","4.525048300000001","bergschenhoek","restaurant"
"124","Einstein Leiden","52.1583121","4.492005999999999","leiden","restaurant_and_bar"
"7096","Meadow op het Deventer Stadsstrand","52.2482069","6.1534528","deventer","restaurant_and_bar"
"6918","Café De Bank Veendam","53.1050426","6.880417699999999","veendam","bar"
"955","Bar Bea","52.08003999999999","4.302835","den-haag","restaurant"
"2309","Grand Café Time Out","53.2186448","6.5706272","groningen","restaurant_and_bar"
"6480","Brasserie Peil 5","50.9417839","5.8817105","schinnen","restaurant"
"833","Thomas' Café‚ V.O.F.","52.5113906","5.0435933","edam","restaurant"
"5261","MarktZicht Eten En Drinken","52.6783497","4.806901099999999","broek-op-langedijk","restaurant"
"1691","De Vier Broers | beer & grill","52.155","5.387777800000001","amersfoort","restaurant_and_bar"
"2365","Rijntje","51.9457028","4.4886411","rotterdam","restaurant"
"246","de Silveren Spiegel","52.3776757","4.8937305","amsterdam","restaurant_and_bar"
"228","'t Nieuwe Kafé","52.3736992","4.892002","amsterdam","restaurant"
"1275","Café Emma","52.0768751","4.2823235","den-haag","restaurant_and_bar"
"3603","Zaal 4","51.8074842","5.7262039","wijchen","restaurant"
"5196","Buurman & Buurman Eetwinkel","53.21634350000001","6.5477968","groningen","restaurant"
"7185","Jiwa Social Club","52.0872767","4.8837385","woerden","restaurant_and_bar"
"7146","Cafe 't Galjoen","52.2792881","5.1580986","bussum","bar"
"295","La Brochette","52.3245473","4.8674513","amsterdam","restaurant"
"4838","Bistro Papillon","50.8472095","5.770158999999999","bemelen","restaurant"
"7153","Old Scuola","51.9234277","4.49323","rotterdam","restaurant"
"17","Café Hesp","52.3498214","4.912584900000001","amsterdam","restaurant_and_bar"
"7299","Eetcafé De Prins","51.6824141","5.3914639","berlicum","restaurant"
"7005","Restaurant SUMMUM","52.3325737","5.548404800000001","zeewolde","restaurant_and_bar"
"4354","Dutch Dukes","51.9153962","4.475823099999999","rotterdam","restaurant"
"7147","Murphy's Bussum","52.2790145","5.1582953","bussum","bar"
"4593","Villa Zoethout","52.6246725","4.7332032","alkmaar","restaurant"
"4189","Bistro Malle Jan","52.15713460000001","4.4885912","leiden","restaurant"
"609","Café Kuijper","52.359886","4.925751399999999","amsterdam","restaurant_and_bar"
"2321","Paviljoen Twiske","52.45055079999999","4.8832739","oostzaan","restaurant"
"4620","Restaurant E11F | Panningen","51.3277146","5.9815158","panningen","restaurant"
"7763","De Rechter","51.5883414","5.3250948","boxtel","restaurant"
"384","Casa Del Toro","52.3751407","4.8923813","amsterdam","restaurant"
"4348","Restaurant Gaar","50.8763818","5.7355524","meerssen","restaurant"
"829","Strandzuid","52.341653","4.8865262","amsterdam","restaurant"
"227","Kapitein Zeppos","52.3696513","4.893733399999999","amsterdam","restaurant_and_bar"
"2134","Mr. Moos Bar & Bistro","51.58892059999999","4.7763228","breda","restaurant"
"3351","Wonders Heerhugowaard","52.6627783","4.8277003","heerhugowaard","restaurant"
"850","Bar Bouwmeester","52.3473341","4.904601700000001","amsterdam","restaurant"
"3125","Next","52.4013266","4.8919321","amsterdam","restaurant"
"7201","Amsterdam Centraal railway station","52.37905319999999","4.9003621","amsterdam","other"
"259","Cafe Scharrebier","52.3704529","4.9111601","amsterdam","restaurant_and_bar"
"3702","Caspar","51.985914","5.9163139","arnhem","restaurant_and_bar"
"2985","Rabenhaupt | Ontzettende Held In Eten En Drinken!","53.21586299999999","6.570315000000001","groningen","restaurant"
"760","De VerbroederIJ","52.3848122","4.9298454","amsterdam","restaurant"
"5380","Teahouse 'De Leidsehout'","52.1755401","4.4811882","leiden","restaurant"
"3493","De Skeve Toren","53.20265790000001","5.7912525","leeuwarden","restaurant"
"4068","Het Broodhuys","53.200937","5.794335999999999","leeuwarden","restaurant"
"285","Café Wildschut","52.353457","4.8828527","amsterdam","restaurant_and_bar"
"6584","Prosciutto","50.8468512","5.6929314","maastricht","restaurant"
"3250","Bossche Brouwers aan de Vaart","51.69690589999999","5.299251299999999","s-hertogenbosch","restaurant_and_bar"
"4008","Orff","52.3695406","4.901715900000001","amsterdam","restaurant"
"567","Grand Café Frankendael","52.3490648","4.937593300000001","amsterdam","restaurant"
"1821","Moellies","52.5254925","5.717607300000001","dronten","restaurant"
"273","Onder de Ooievaar","52.36194239999999","4.8991443","amsterdam","bar"
"1557","Happy Tosti Den Haag","52.079691","4.316896399999999","den-haag","restaurant"
"3042","TOTT Groningen","53.218729","6.5732707","groningen","restaurant"
"7461","Restaurant Karakter","52.02734","5.5578173","veenendaal","restaurant"
"1474","'t Wapen van Norg","53.06655120000001","6.460744400000001","norg","restaurant"
"5234","Grand Cafe Tante Fie","52.05234159999999","5.1478372","houten","restaurant"
"2954","Il Lago restaurant","53.1877778","6.555277799999999","groningen","restaurant"
"2927","Taj Mahal","53.2148256","6.5772137","groningen","restaurant_and_bar"
"1381","Barlou","51.9351004","4.4793961","rotterdam","restaurant_and_bar"
"857","Café Restaurant De Zwarte Ruiter","52.0759035","4.309156000000001","den-haag","restaurant_and_bar"
"3770","Herberg 't Plein","52.69652480000001","6.1932471","meppel","restaurant"
"219","Café 't Gasthuys","52.3694444","4.8936111","amsterdam","restaurant_and_bar"
"2245","Bij Meta eten & drinken","52.64399090000001","5.052077400000001","hoorn","restaurant"
"986","Grandcafé Burgerzaken","51.8717555","4.599711999999999","ridderkerk","restaurant"
"5746","'T Losse Hoes","52.2973778","6.419799999999999","holten","other"
"1237","Thuis bij Fien","51.8080788","5.722911799999999","wijchen","restaurant"
"6565","Van Wijck | wyck","50.84956090000001","5.699346100000001","maastricht","restaurant"
"7161","Hotel Restaurant Grandcafe 't Voorhuys","52.7110658","5.753202099999999","emmeloord","restaurant"
"1796","Café Restaurant September","52.0759096","4.3093503","den-haag","restaurant"
"3186","Café de Inloop","51.9304862","4.347183399999999","vlaardingen","restaurant"
"531","Frizzanteria","52.35377009999999","4.8670175","amsterdam","restaurant"
"4332","Café Eijlders","52.36493039999999","4.882475099999999","amsterdam","restaurant"
"1663","Eet- & Wielercafé Cours!","52.995757","6.563301800000001","assen","restaurant"
"1632","Huis Ter West","51.963176","5.9682605","westervoort","restaurant"
"7174","Restaurant Three Amigos","51.6909735","5.2915667","s-hertogenbosch","restaurant"
"1879","Bistro 't Kannetje","52.15532779999999","5.388275","amersfoort","restaurant"
"3413","Parkcafé Mees","52.25712249999999","6.1580211","deventer","restaurant"
"7166","De Deli - Plantagebuurt","52.3669772","4.9120382","amsterdam","restaurant_and_bar"
"67","Bar BAUT","52.3457423","4.8597124","amsterdam","restaurant"
"2515","Restaurant Enya","52.1413691","5.0414132","maarssen","restaurant"
"503","The Magpie","52.34950829999999","4.848912599999999","amsterdam","restaurant_and_bar"
"1108","diepnoord","51.93905960000001","4.479878800000001","rotterdam","restaurant_and_bar"
"564","Maximus Steakhouse","52.36228910000001","4.8834594","amsterdam","restaurant"
"7167","Pita Queen","52.3624939","4.927342599999999","amsterdam","restaurant"
"7092","Café Juliana","51.60136230000001","3.847285300000001","colijnsplaat","restaurant"
"789","Gollem Aan Het Water","52.3680955","4.9164407","amsterdam","restaurant_and_bar"
"400","Chris Scholten Café","52.35429329999999","4.9014622","amsterdam","restaurant"
"6247","Eetcafé 't Ken-net","52.66503069999999","5.200627899999999","venhuizen","restaurant"
"657","'t Zusje Amsterdam","52.3286371","4.877886200000001","amsterdam","restaurant_and_bar"
"7168","De Taanketel","52.459114","5.10095","marken","restaurant_and_bar"
"2840","De Stadthouder","52.158642","4.491736","leiden","restaurant_and_bar"
"985","Café Restaurant de Eendracht Blaricum","52.27565440000001","5.2254112","blaricum","restaurant_and_bar"
"5170","Café De Hamer","52.2410414","5.9563566","wenum-wiesel","restaurant"
"4293","Stads-Koffyhuis","52.010852","4.356406","delft","restaurant"
"7175","Bolletjescafé de Klok","52.7225","4.7338889","warmenhuizen","restaurant"
"1210","Jamey Bennett","52.07946279999999","4.3093188","den-haag","restaurant"
"347","Brasserie Van Dam","52.355639","4.870725000000001","amsterdam","restaurant"
"3294","Spaghetteria Adriaen van Ostadelaan","52.0830461","5.1403423","utrecht","restaurant"
"1958","Restaurant / Café De Kleine Winst","51.2830228","5.7505336","nederweert","restaurant_and_bar"
"1195","Café Carèl","52.0928652","5.1215809","utrecht","restaurant"
"1148","Gunnery's Irish Pub","52.6298217","4.750098500000001","alkmaar","restaurant_and_bar"
"917","Dara","52.1599166","5.384616600000001","amersfoort","restaurant"
"3878","Café de Jongens","52.0518091","6.311984699999999","hengelo","restaurant"
"66","BAUT Oost","52.3546072","4.912678399999999","amsterdam","restaurant"
"2800","Restaurant Alba","52.3560247","4.9118732","amsterdam","restaurant"
"595","Harlem Soul Food","52.3802959","4.891609","amsterdam","restaurant"
"4313","Badhuis Oedipus","52.36354410000001","4.9399474","amsterdam","restaurant_and_bar"
"3091","Partycafe de Doos","53.2175731","6.568075899999999","groningen","bar"
"948","Bar Bukowski","52.3579617","4.9176701","amsterdam","restaurant_and_bar"
"3648","Proeflokaal Beij Ons","51.8395147","5.8718516","nijmegen","restaurant_and_bar"
"3799","Vet Gezond","52.1452642","4.4936228","leiden","restaurant_and_bar"
"340","Café De Fluiter","52.3792717","4.8568463","amsterdam","restaurant"
"1213","De Machinist","51.90789729999999","4.4617844","rotterdam","restaurant"
"4158","Burgers Enzo/Juffrouw Coco","51.1961434","5.9852349","roermond","restaurant"
"4151","Bruijn Café","52.3005114","5.6258933","ermelo","restaurant_and_bar"
"6603","Café De Hollande","50.99794889999999","5.8713931","sittard","restaurant"
"4484","Café 'Tango'","52.011343","4.3564944","delft","bar"
"1868","Wijnbar Pinot","51.58903609999999","4.7762444","breda","restaurant_and_bar"
"271","Café De Prins","52.37615830000001","4.8839833","amsterdam","restaurant"
"3077","La Provence","53.2134942","6.565517900000001","groningen","restaurant"
"4401","Restaurant Daalder*","52.3642559","4.859056099999999","amsterdam","restaurant"
"359","Café Bax","52.365613","4.867942","amsterdam","restaurant"
"5311","Barrique","52.27487619999999","5.163065699999999","bussum","restaurant"
"1788","'t Waaltje","51.8432428","4.5698872","heerjansdam","restaurant"
"2539","Gasterij 't Hilletje","52.18493729999999","5.770988399999999","kootwijk","restaurant"
"139","FC Hyena","52.3833861","4.929057999999999","amsterdam","restaurant_and_bar"
"5175","Cafe de schoof","51.9823151","5.9041243","arnhem","restaurant_and_bar"
"3660","Café Waterlooplein 77","52.3683642","4.9062994","amsterdam","restaurant"
"1341","De Stadsherberg","51.69870400000001","5.971969","gennep","restaurant"
"3412","Café Sportpark","52.37472409999999","4.8577004","amsterdam","restaurant"
"2793","Rijke & de Wit","51.9122207","4.4554489","rotterdam","restaurant_and_bar"
"1399","Lovano Kitchen and Bar","51.42217759999999","5.368370599999999","veldhoven","restaurant_and_bar"
"4216","Strandpaviljoen Paal 9","53.0211712","4.7111679","den-hoorn-texel","restaurant"
"2110","Fellini City Lounge","53.1999587","5.7930861","leeuwarden","restaurant"
"3120","Boon Barista's","50.9499509","5.9082435","oirsbeek","restaurant"
"71","Geniet aan de Amstel","52.2328021","4.832239","uithoorn","restaurant"
"785","Cantine de Caron","52.3863436","4.872816699999999","amsterdam","restaurant"
"1306","De Brouwer","51.464126","5.794175099999999","deurne","bar"
"2574","eetcafe `t elfde gebod","51.5551824","5.0890132","tilburg","restaurant"
"4027","Grandcafé Wijntje","52.1864557","5.6076732","voorthuizen","restaurant"
"2112","Effe Anders","52.50898919999999","4.949341799999999","purmerend","restaurant"
"438","Café De Oude Schaeper","52.3742635","4.8740502","amsterdam","restaurant_and_bar"
"1596","Brasserie De Boerderij","51.9946282","5.899375099999999","arnhem","restaurant"
"2995","De Betere Tijden","53.2171306","6.568433699999999","groningen","restaurant"
"6596","Harbour Club","50.8554082","5.6917994","maastricht","restaurant"
"505","Venster 33","52.3564875","4.8924729","amsterdam","restaurant_and_bar"
"696","SOTTO Pizza Kadijksplein","52.37","4.911944399999999","amsterdam","restaurant"
"4857","Eetcafé-Restaurant-Zalen De Witte Leeuw","51.696264","4.874867","raamsdonksveer","restaurant"
"1645","Ristorante La Scala","52.1559944","5.389187299999999","amersfoort","restaurant"
"4112","ZanziBar","51.4984134","3.6105574","middelburg","restaurant_and_bar"
"8035","Restaurant Oniria & Cocktail Bar","51.9180556","4.3975","schiedam","restaurant_and_bar"
"5277","By Rem","52.0812676","4.2925317","den-haag","restaurant"
"2526","Gastropub Van Kinsbergen","52.08196","4.294303","den-haag","restaurant_and_bar"
"469","Brasserie Nel","52.3622075","4.8966932","amsterdam","restaurant"
"3945","The Bierelier","52.0838408","4.3312062","den-haag","restaurant"
"2485","Het Stadscafé","52.215142","5.9591509","apeldoorn","restaurant_and_bar"
"3887","Het Rieten Dak","52.0245476","4.374241799999999","delft","restaurant"
"6854","Strand Zomer","52.1313438","4.7748842","nieuwkoop","restaurant"
"1265","Stadscafé de Basiliek Hengelo","52.2655288","6.793406099999999","hengelo","restaurant"
"957","ARIE","52.3566797","4.8904842","amsterdam","restaurant_and_bar"
"6517","fumi","52.3183478","4.875326699999999","amstelveen","restaurant"
"953","Boothuis","52.3603226","4.8158353","amsterdam","restaurant"
"6197","BRASSERIE DE LINDEBOOM","52.10229030000001","6.646738300000001","eibergen","restaurant"
"5045","Bar Boas","51.687694","5.307314","s-hertogenbosch","restaurant"
"2926","Feest en Podium Cafe de Engelstede","53.20786500000001","6.650367999999999","groningen","restaurant"
"3722","IJzeren Man Vught","51.6540853","5.2594971","vught","restaurant"
"16","PAMELA","52.3659867","4.8718773","amsterdam","bar"
"4180","Cavataria","52.351185","4.863335000000001","amsterdam","restaurant_and_bar"
"2655","Grand Café & Stadsbrouwerij","51.966498","6.287242","doetinchem","restaurant"
"721","George Marina","52.34197959999999","4.9187423","amsterdam","restaurant"
"5337","Café de Sleutel","53.21898199999999","6.557840099999999","groningen","restaurant_and_bar"
"1216","Café de Wetering","52.36123300000001","4.8888745","amsterdam","restaurant"
"4517","Café Strano","51.9187497","4.4728483","rotterdam","restaurant_and_bar"
"7189","Courtyard by Marriott Amsterdam Airport","52.3212225","4.665943599999999","hoofddorp","other"
"4009","Eetcafé Rumours","52.772721","5.106707999999999","medemblik","restaurant"
"211","Gent aan de Schinkel","52.3546665","4.852994299999999","amsterdam","restaurant_and_bar"
"5763","Het Wapen van Ilpendam","52.4633333","4.9502778","ilpendam","restaurant_and_bar"
"618","Kitchen & Bar Van Rijn B.V.","52.3663868","4.8968538","amsterdam","restaurant"
"598","Café Restaurant Kerkzicht","52.3413889","4.7997222","amsterdam","restaurant"
"4720","Restaurant De Kerkbrink B.V.","52.2123989","5.2921917","baarn","restaurant"
"1269","Lebowski","52.09066980000001","5.1208959","utrecht","restaurant_and_bar"
"7173","Vincenzo's - Scheveningen","52.11088059999999","4.290069100000001","den-haag","restaurant"
"274","De Duvel","52.3548325","4.8936383","amsterdam","restaurant"
"7192","Cafe Wiesje","52.351966","4.8532574","amsterdam","restaurant"
"4128","Strandpaviljoen de strandzot","51.5058387","3.4694165","zoutelande","restaurant"
"866","Cafe Binnen Buiten","52.3547976","4.8872165","amsterdam","restaurant_and_bar"
"4687","Eetcafé Bommels","52.64031989999999","5.061201299999999","hoorn","restaurant"
"433","La Casa Di Michael","52.3843028","4.8469694","amsterdam","restaurant"
"3251","Badabing","52.0906499","5.1208863","utrecht","bar"
"1270","Bar Restaurant Walden","52.0908501","5.120775699999998","utrecht","restaurant_and_bar"
"3638","Gastrobar Blend 61","51.9698352","6.7215885","winterswijk","restaurant"
"1889","Concordia","52.1908357","5.3809667","hoogland","restaurant"
"1267","café smit & voogt","52.3673629","4.9095989","amsterdam","restaurant"
"4103","Casa Capello","52.0917656","4.302154199999999","den-haag","restaurant"
"303","Café Rock Planet","52.3717967","4.8954019","amsterdam","bar"
"4939","The Duke of Oz","52.16283869999999","4.4861334","leiden","bar"
"5223","Café De Nieuwe Lelie","52.37523300000001","4.880817","amsterdam","bar"
"4129","Strandpaviljoen De Branding","51.5021721","3.4774139","zoutelande","restaurant"
"5780","Uitspanning Goejanverwelle","52.014724","4.810379","hekendorp","restaurant"
"3169","Restaurant Broer & Ko","51.9266667","5.5733333","kesteren","restaurant"
"3926","Visser's Poffertjes","51.8151682","4.6664955","dordrecht","restaurant_and_bar"
"5588","Café Restaurant Rootz","52.0759277","4.310046199999999","den-haag","restaurant"
"1530","Café Mosa","52.0788857","4.276221299999999","den-haag","restaurant"
"1861","Restaurant Het Wapen van Harmelen","52.0916896","4.965032899999999","harmelen","restaurant"
"7159","Strandpaviljoen 't Halve Maentje","51.40529309999999","3.5366442","breskens","restaurant"
"4628","Restaurant Bi-j Siem","51.285766","5.7481459","nederweert","restaurant"
"3942","Café l'Espérance","52.15622519999999","4.485845","leiden","restaurant_and_bar"
"2996","Jantje's Steakcafé","53.22595280000001","6.5978307","groningen","restaurant"
"2960","Buckshot Café","53.2145378","6.567090400000001","groningen","restaurant_and_bar"
"7158","Breskens aan Zee","51.3986315","3.5598643","breskens","restaurant"
"2285","Restaurant Mulino","52.67295840000001","6.2857633","de-wijk","restaurant"
"3074","Watami","53.21637719999999","6.5582027","groningen","restaurant"
"7533","Restaurant 't Oale Roadhoes","52.40751650000001","6.7822475","tubbergen","restaurant"
"7753","Lilith","51.915857","4.466847999999999","rotterdam","restaurant"
"3024","Shufu Cuisine","53.235762","6.631301000000001","groningen","restaurant"
"6751","Restaurant Karakter","51.98282499999999","5.908039200000001","arnhem","restaurant"
"4555","Bar Florian","51.9822435","5.9070082","arnhem","restaurant_and_bar"
"413","Doppio Espresso Amsterdam Zuidas","52.33680769999999","4.872722599999999","amsterdam","restaurant"
"3049","Harry's Café","53.20762","6.648392899999998","groningen","restaurant_and_bar"
"4356","Café The Templar","51.8435195","5.861682399999999","nijmegen","restaurant"
"7108","Brasserie Brands","51.58162919999999","5.1993624","oisterwijk","restaurant"
"5061","De Ganzenhoedster restaurant","52.6608627","6.7408141","coevorden","restaurant"
"942","Café Kanaalzicht","52.0901222","5.0905495","utrecht","restaurant"
"4125","strandpaviljoen TXIKI","51.5571663","3.4753644","domburg","restaurant"
"6733","Vincenzo's","52.0816728","4.292609300000001","den-haag","restaurant"
"884","MEAT Franky's","51.87069579999999","4.603180499999999","ridderkerk","restaurant"
"395","Pind Punjabi Indian Restaurant","52.34955619999999","4.903746600000001","amsterdam","restaurant"
"640","Caffè Pico","52.3551989","4.8900045","amsterdam","restaurant"
"4557","Allure Lunch","51.9824164","5.906529899999999","arnhem","restaurant"
"240","Café Reynders","52.3646634","4.882987099999999","amsterdam","restaurant"
"3406","Grand Cafe Stompehoeve","52.61320689999999","4.8211721","stompetoren","restaurant"
"418","De Blaffende Vis","52.3785341","4.8832883","amsterdam","restaurant"
"518","Oceaan","52.37141630000001","4.9466742","amsterdam","restaurant_and_bar"
"802","Café ""Marcella""","52.362249","4.8982857","amsterdam","restaurant_and_bar"
"667","The Cottage","52.35612039999999","4.9272931","amsterdam","restaurant_and_bar"
"3247","Paviljoen Overdiep","53.3191012","6.8579283","appingedam","restaurant"
"403","Café Nol","52.37829","4.883390299999999","amsterdam","restaurant"
"2822","Vascobelo V-bar Rijnstraat","52.3438133","4.9064839","amsterdam","restaurant_and_bar"
"1056","1NUL8","51.92161429999999","4.481502","rotterdam","restaurant_and_bar"
"563","Cafe 't Molentje","52.3722675","4.888045899999999","amsterdam","restaurant"
"6837","Casa Sarda","52.34758840000001","5.9841399","epe","restaurant"
"6749","Tapperij Het Veulen","51.68976129999999","5.300144299999999","s-hertogenbosch","restaurant_and_bar"
"1787","Eetcafé Kromme Knilles","53.05005309999999","5.833451999999999","akkrum","restaurant"
"1793","Brasserie van Beinum","52.3811782","4.638710100000001","haarlem","restaurant"
"6871","Restaurant Dintelmond","51.648597","4.3884346","heijningen","restaurant"
"1697","Café Bolhuis","53.21280729999999","6.5561134","groningen","restaurant"
"746","Cafe Kale","52.3595298","4.8974378","amsterdam","restaurant_and_bar"
"795","Limon","52.3360831","4.8731621","amsterdam","restaurant"
"5209","Knus","52.02102","4.3704904","delft","restaurant_and_bar"
"6653","Boscafé de Zweef","51.7829796","5.8842663","malden","restaurant_and_bar"
"2347","Herberg De Drie Linden","51.6562122","5.1514778","drunen","restaurant"
"6941","Loewy bistro","51.9896067","5.911029699999999","arnhem","restaurant"
"320","Brasserie De Serre","52.3588055","4.805164","amsterdam","restaurant"
"2772","Café Falstaff","50.8487979","5.6905573","maastricht","restaurant_and_bar"
"3519","Het Station Enkhuizen","52.6996637","5.2889952","enkhuizen","restaurant"
"799","La Parole","52.3684676","4.8683179","amsterdam","restaurant"
"488","Café het Paleis","52.3723178","4.8889866","amsterdam","restaurant"
"4054","Bistrobar Beaune","52.0091712","5.9676914","rozendaal","restaurant"
"1177","De Groene Vlinder","52.3553711","4.8930242","amsterdam","restaurant"
"7164","Restaurant Noos","51.3389619","3.8244254","terneuzen","restaurant"
"4986","Eetcafé @ the Beach","52.5470495","5.4547421","lelystad","restaurant"
"5016","Herberg ""de Veerkes""","51.5453459","5.184108500000001","moergestel","restaurant"
"3282","Bij Wout","51.5449207","5.1836111","moergestel","restaurant"
"994","Venneper Lodge","52.2652934","4.5960539","nieuw-vennep","restaurant"
"596","Bar Grill Marathonweg","52.34860189999999","4.8608627","amsterdam","restaurant_and_bar"
"2721","Diggels Barendrecht","51.8577174","4.5334756","barendrecht","restaurant"
"3184","Het Hart van Vlaardingen","51.9096336","4.343403800000001","vlaardingen","restaurant"
"2195","Café A Jenne Sjlaagboom","50.864976","6.0615511","kerkrade","restaurant_and_bar"
"4585","Riverside Lounge Maastricht","50.8501257","5.694431499999999","maastricht","restaurant"
"4470","Cafe The Union","51.6911333","5.3084447","s-hertogenbosch","restaurant"
"908","Grand Café - Bistro Heren van Houten","52.0348893","5.1701007","houten","restaurant_and_bar"
"3096","Ugly Duck","53.21809529999999","6.563609100000001","groningen","restaurant"
"6963","La Piazza Woudenberg","52.0818368","5.4145029","woudenberg","restaurant"
"4229","Wolly.","51.9310036","4.4854986","rotterdam","restaurant"
"3407","Brasserie De Kerckhaen","52.5748405","4.8989882","westbeemster","restaurant"
"3568","Café Flater","52.0918946","5.1176213","utrecht","restaurant_and_bar"
"5174","Unibar","51.982376","5.911122999999999","arnhem","restaurant_and_bar"
"1101","Lokaal Duinoord","52.0817385","4.2831215","den-haag","restaurant"
"3596","Brasserie de Canette","52.3530535","4.621854600000001","heemstede","restaurant"
"4660","Grand Café de Pakschuit","52.0733914","4.3150853","den-haag","restaurant_and_bar"
"3641","Bon Appetit Lunch Restaurant & Catering","51.9707502","6.7167579","winterswijk","restaurant"
"1762","Café de Plaats Montfoort","52.0451286","4.950593400000001","montfoort","restaurant"
"24","Lowlander Botanical Bar & Restaurant","52.38204589999999","4.9202677","amsterdam","restaurant_and_bar"
"1422","Paviljoen SALT","53.0332407","5.779158700000001","terherne","restaurant"
"2940","Café Tante Truus","53.2159779","6.555656699999999","groningen","restaurant"
"4591","De Bruijn Lunchen op de Markt","51.84773310000001","5.8633368","nijmegen","restaurant"
"3827","Du Monde Bar&Kitchen","52.3007782","4.8463397","amstelveen","restaurant"
"674","Spaghetteria Olympiaplein","52.3461156","4.866899","amsterdam","restaurant"
"6876","Restaurant Lova","51.58078689999999","4.5867659","hoeven","restaurant"
"1068","Il Caffè","52.3211678","4.8751595","amstelveen","restaurant"
"5206","Queen of Hearts","52.0613889","4.493055599999999","zoetermeer","restaurant"
"1163","Bramble","53.2277527","6.559905399999999","groningen","restaurant_and_bar"
"6660","Dende","52.1590499","4.491555099999999","leiden","restaurant"
"6329","Café De Komedie","51.9351268","4.464661","rotterdam","bar"
"1622","Villa Orloff","52.09281670000001","5.1265277","utrecht","restaurant_and_bar"
"5316","Restaurant De Haas","52.44804299999999","5.835160999999999","elburg","restaurant_and_bar"
"1082","Kula","51.9092907","4.4636926","rotterdam","restaurant"
"1199","Nibbles","51.8478796","5.8610498","nijmegen","restaurant_and_bar"
"5269","Flavor's","52.090553","4.2739696","den-haag","restaurant"
"1382","De Gasterij","51.8299403","4.974898","gorinchem","restaurant"
"7190","De Stadskamer Gorinchem","51.8299581","4.9743357","gorinchem","restaurant"
"312","Gouden Kom IJburg","52.358054","4.991112","amsterdam","restaurant"
"1477","Fort aan de Klop","52.119501","5.088929","utrecht","restaurant"
"175","café40","52.3752213","4.897405599999999","amsterdam","bar"
"4006","Café Vader Klaassens","51.36803200000001","6.1709104","venlo","restaurant"
"1426","BAIANA","51.8674121","5.884856099999999","bemmel","restaurant_and_bar"
"5185","Café Suikerland","51.9674654","5.9083573","arnhem","bar"
"759","Café Van Leeuwen","52.364071","4.898372","amsterdam","restaurant_and_bar"
"1732","The Talk","51.5575687","5.089877299999999","tilburg","restaurant"
"3423","Grand Café Balu","52.546066","4.662204","castricum","restaurant_and_bar"
"1909","Café Vue Grandige","52.2245289","5.177893500000001","hilversum","bar"
"6335","de HALL | BurgerEI & Zakenlui","52.07667499999999","4.8970066","woerden","restaurant"
"5010","1480 FoodBar","52.630826","4.7499655","alkmaar","restaurant_and_bar"
"7144","Opoe Sientje","51.8491896","5.871928299999999","nijmegen","other"
"3431","Café My Way","52.5473717","4.6666538","castricum","restaurant_and_bar"
"76","De Vrienden van de Burgemeester","52.0612951","4.492785899999999","zoetermeer","restaurant"
"5408","Bistro Hero","52.1399498","5.241896599999999","den-dolder","restaurant"
"2258","Don Qui-John","51.57755279999999","4.7393486","breda","restaurant"
"2123","Het Roode Hert","51.5771974","4.739542000000001","breda","restaurant"
"5956","De Botanie","52.0130753","4.3577312","delft","restaurant_and_bar"
"3896","Aan de Gracht","53.03201929999999","5.661527699999999","sneek","restaurant"
"1080","Restaurant MAAS","51.9147386","4.507724099999999","rotterdam","restaurant"
"6281","Café Brasserie Capital","50.8520534","5.6906418","maastricht","restaurant_and_bar"
"691","Small Talk","52.3579894","4.8783207","amsterdam","restaurant"
"4871","Eetcafé de Musketier","52.37529379999999","7.0046091","denekamp","restaurant"
"2718","Dinercafé en Zaal van der Hooft","51.6452206","4.6062795","zevenbergen","restaurant"
"2007","Zwetser Eten & Drinken","52.786029","6.893894","emmen","restaurant_and_bar"
"7021","Café 't Centrum","52.7336027","4.986644","de-weere","restaurant"
"2684","Restaurant Hendrik","52.2300757","5.034113899999999","vreeland","restaurant"
"1774","Restaurant Café de Belgische Keizer","52.51352800000001","6.090036","zwolle","restaurant_and_bar"
"4437","Rodeo","51.58808739999999","4.776140499999999","breda","restaurant"
"2491","Bij 't Raadhuys","52.1392046","5.5870715","barneveld","restaurant"
"1134","Spaghettiria Foodhall Arnhem","51.9779414","5.905501000000001","arnhem","restaurant"
"3544","VOF Café 't Gommelen","51.624048","5.1642975","biezenmortel","restaurant"
"2556","De Kostery","53.2193162","6.5683984","groningen","restaurant"
"844","Café Ledig Erf","52.0816275","5.123410900000001","utrecht","bar"
"2683","Café Prins Heren","52.216405","4.935332000000001","vinkeveen","restaurant"
"83","Grand Café Restaurant Boekmans","51.8023698","4.7161854","dordrecht","restaurant"
"3223","Bistro de Gelaarsde Kat","52.1322723","4.6635704","alphen-aan-den-rijn","restaurant"
"257","St. James's Gate","52.3659597","4.8954661","amsterdam","restaurant_and_bar"
"2941","LABnul50","53.2258211","6.562327799999999","groningen","restaurant"
"490","Bolenius Restaurant","52.3361421","4.8736565","amsterdam","restaurant"
"155","Café de Ceuvel","52.3933105","4.9106865","amsterdam","restaurant_and_bar"
"4608","High5","52.2658338","6.7910735","hengelo","restaurant"
"4341","Villa Westend","52.424532","4.673079","velserbroek","restaurant"
"4274","De Sushimeisjes","52.0776457","4.2667106","den-haag","restaurant"
"1560","Restaurant Oudejans","52.5598372","4.849896899999999","de-rijp","restaurant"
"1459","Eetcafé de Vergulde Vos","52.19585679999999","4.5837132","rijpwetering","restaurant"
"641","Pizza Project - Neapolitan Pizza Bar - Maasstraat","52.34664399999999","4.8948201","amsterdam","restaurant"
"1897","Marie Café Brasserie","52.1498272","5.378793799999999","amersfoort","restaurant"
"4837","PizzaLab","52.3362536","4.8696436","amsterdam","restaurant"
"1156","Grand Café Klunder","52.63354","4.744129799999999","alkmaar","restaurant"
"7371","Restobar Arroz","52.3798955","4.6316044","haarlem","restaurant_and_bar"
"5237","Café-Biljart ""De Concurrent""","51.4416475","3.5742386","vlissingen","restaurant"
"4245","Café-Restaurant Aaltje","52.3088393","5.0384989","weesp","restaurant"
"7009","Nogal Wiedus","52.9525325","4.7220922","huisduinen","restaurant"
"453","Bar Lempicka","52.3607136","4.9048664","amsterdam","restaurant"
"3007","Guesthouse/Bar The Happy Traveler","53.21870490000001","6.562035","groningen","bar"
"2866","Blue Bayou","52.51406069999999","6.0890976","zwolle","restaurant"
"1151","Las Rosas","52.5134814","6.0897428","zwolle","restaurant_and_bar"
"2949","Moro","53.2168661","6.5724242","groningen","restaurant"
"599","Café de Magere Brug","52.3636895","4.903230299999999","amsterdam","restaurant"
"2923","O'Ceallaigh Traditional Music Bar","53.21658919999999","6.5721453","groningen","restaurant_and_bar"
"314","Cafe de krul","52.3630998","4.8843046","amsterdam","bar"
"6126","Broodjes Bar D`n Jayce","51.58780119999999","4.318339300000001","steenbergen","restaurant"
"1222","Maggie Blue","52.1307869","4.6638079","alphen-aan-den-rijn","restaurant"
"2991","Literary Café De Graanrepubliek","53.21656230000001","6.572101300000001","groningen","restaurant_and_bar"
"725","The Old Bell","52.3657699","4.897425399999999","amsterdam","bar"
"4685","La Vespa Bussum","52.279746","5.158023","bussum","restaurant"
"1664","Café Het Weerbericht","52.0950724","5.1296305","utrecht","restaurant"
"6123","Nobel Hotel Ameland","53.443676","5.6874041","ballum","other"
"2239","Rivero Schoonhoven","51.9428387","4.8550332","schoonhoven","restaurant"
"6077","The Irish Cottage","52.7225091","4.860571699999999","oude-niedorp","restaurant_and_bar"
"815","Café De Boer","52.49442999999999","5.0766113","volendam","restaurant"
"269","Café Emmelot","52.3747887","4.8990609","amsterdam","restaurant"
"3930","Kamu koffiebar en fietsenwinkel","51.5900074","4.7813635","breda","restaurant"
"6058","Wurst & Schnitzelhaus Zuidas (WuSH)","52.3356251","4.873091600000001","amsterdam","restaurant"
"3821","Grand Café Cheers","52.3414764","4.9633612","diemen","restaurant"
"2932","Proeflokaal aan de Amstel","53.21490349999999","6.576468500000001","groningen","restaurant_and_bar"
"369","Eetcafé Frame","52.36604229999999","4.895500599999999","amsterdam","restaurant"
"729","Het Groene Paleis","52.37104009999999","4.8932575","amsterdam","restaurant_and_bar"
"2267","Gasterij de Kluis","52.0347861","5.3460056","doorn","restaurant"
"2316","Café 't Anker","51.91923119999999","4.581814199999999","krimpen-aan-den-ijssel","restaurant"
"1911","Café de Swartesteegh | Puur Café voor borrelen en feesten | Bruine Kroeg in Leusden","52.1381887","5.426701599999999","leusden","restaurant_and_bar"
"1671","De Beurs","52.0928754","5.119053999999999","utrecht","restaurant_and_bar"
"5579","Ministerie van Geluk","52.0539043","4.5019809","zoetermeer","restaurant"
"1736","Glouglou","52.35250629999999","4.895026199999999","amsterdam","restaurant_and_bar"
"726","Westervilla","52.3845737","4.8618049","amsterdam","restaurant"
"2611","Café Pieper","52.3661929","4.8823496","amsterdam","bar"
"1140","Bar Simon","51.9177749","4.4581454","rotterdam","restaurant_and_bar"
"1212","Stadscafé Oscar","52.0455029","5.6719856","ede","restaurant_and_bar"
"351","Brasserie Hoekenrode","52.3131046","4.9482374","amsterdam","restaurant"
"3642","VanStreek Winterswijk","51.9708372","6.7192179","winterswijk","restaurant"
"7047","Prik & Proost","52.2208324","4.6720145","leimuiden","restaurant"
"529","Wan Shun Restaurant","52.3261699","4.8788826","amsterdam","restaurant"
"1995","Cultuurcafé","51.8194129","5.8641243","nijmegen","restaurant"
"4415","Het Panorama Restaurant/Grand-Café","51.71007100000001","4.808896399999999","drimmelen","restaurant"
"5591","Lotgenoten Eetcafé","52.32548509999999","4.9387158","duivendrecht","restaurant"
"4155","Ristorante Pizzeria La Terra Italiana","52.504789","6.095881500000001","zwolle","restaurant"
"3510","Dubbel & Dwars","52.703322","5.2904338","enkhuizen","restaurant_and_bar"
"912","Op Roose","52.07236049999999","5.0880831","utrecht","restaurant"
"803","Winkel van Sinkel","52.0919616","5.118717099999999","utrecht","restaurant_and_bar"
"4461","Restaurant Wolfslaar","51.56067789999999","4.804899799999998","breda","restaurant"
"1724","Café-Restaurant De Zwaan","51.51068","5.49367","son","restaurant_and_bar"
"4807","De IJsboetiek","51.93462479999999","5.574351","kesteren","restaurant"
"2494","Grand Café Fabels","51.55075619999999","4.8671208","molenschot","restaurant"
"2377","Party Service Bar Eethuis Saantje","52.68150920000001","5.948385800000001","vollenhove","restaurant"
"3825","Café In Den Ouden Vogelstruys","50.8488033","5.6892319","maastricht","restaurant_and_bar"
"4292","Il Bacaro","50.8484576","5.689243299999999","maastricht","restaurant"
"1344","BUFFET van Odette","52.36233860000001","4.8890787","amsterdam","restaurant_and_bar"
"878","PARCK aka Ping Pong Bar","52.3599972","4.863377799999999","amsterdam","bar"
"6729","Café de Uilenburg","51.6897743","5.300270699999999","s-hertogenbosch","bar"
"133","Cafe Heuvel","52.3624788","4.8879128","amsterdam","bar"
"2404","De Belofte","52.3472307","5.6163045","harderwijk","restaurant"
"1674","Café Bar De Kolkrijst","52.19321559999999","5.380971999999999","hoogland","restaurant"
"2988","Café Der Witz","53.21801869999999","6.567174100000001","groningen","restaurant"
"1599","Gran Cafe Brava","52.0805698","5.1124025","utrecht","restaurant"
"3982","Roberto bar e cucina","52.62349690000001","4.7369139","alkmaar","restaurant"
"1343","Cafe de Typhoon","51.7012106","5.969006","gennep","bar"
"3856","Restaurant Speijck","51.5684469","5.198981999999999","oisterwijk","restaurant"
"1236","Het Zwarte Schaap","53.2185934","6.573189899999999","groningen","restaurant"
"4290","Meerwold | Eten & Drinken","53.18688179999999","6.5634649","groningen","restaurant"
"3056","Strandpaviljoen Paterswoldsemeer","53.16306760000001","6.577937599999999","haren","restaurant"
"397","Benji's","52.3523635","4.912783399999999","amsterdam","restaurant_and_bar"
"1977","Beers And Steaks","52.1398641","5.5871875","barneveld","restaurant_and_bar"
"4315","Café In den Ommelanden","51.9195692","5.850347600000001","elst","bar"
"6378","The Red Ship","51.91736969999999","4.484531499999999","rotterdam","other"
"1802","De Hooikar","51.53491080000001","4.944313800000001","gilze","restaurant"
"6868","Osteria Bella Ciao Zuid","52.3452144","4.8550321","amsterdam","restaurant"
"477","Brug34","52.3649143","4.8979975","amsterdam","restaurant_and_bar"
"6105","Café Cress","52.395785","4.904281699999999","amsterdam","restaurant"
"840","Café-Restaurant de Vrijheid","52.4940493","5.075893799999999","volendam","restaurant"
"2842","Pannenkoekenhuis het Klooster","52.11560960000001","4.6505014","alphen-aan-den-rijn","restaurant"
"3974","Keck.","52.0166403","4.7066602","gouda","restaurant"
"4212","Brasserie de Berk","51.5093258","4.319788199999999","bergen-op-zoom","restaurant"
"3107","Café de Prins","53.2185658","6.564829100000001","groningen","restaurant_and_bar"
"3547","De Rustende Jager","51.6397705","5.148315","biezenmortel","restaurant"
"1145","Proeflokaal de Boom","52.6322679","4.7507621","alkmaar","restaurant"
"1095","Café Stalles","51.91698","4.4720306","rotterdam","restaurant_and_bar"
"3522","Irish Pub De Poort Van Cleef","53.0325837","5.659753100000001","sneek","restaurant"
"1170","Café de Moesker","53.2276346","6.5556923","groningen","restaurant"
"5949","Herberg De Geulhemermolen","50.8688889","5.783888900000001","berg-en-terblijt","restaurant"
"6165","Don Camillo","51.4941888","4.286827299999999","bergen-op-zoom","bar"
"1258","Stravinsky eten · drinken · slapen","52.2655241","6.7930096","hengelo","restaurant"
"749","Satchmo","52.3700218","4.8928364","amsterdam","restaurant_and_bar"
"6563","'t Piepenhoes","50.8494403","5.6941316","maastricht","restaurant"
"281","Scheltema","52.37209000000001","4.890386","amsterdam","restaurant_and_bar"
"2028","WINDRAAK31","50.9725456","5.8892427","windraak","restaurant"
"5442","Dudockx Bar & Kitchen","52.220986","5.1419606","hilversum","restaurant"
"782","Cafe Kooper Leidseplein","52.364591","4.8824184","amsterdam","restaurant_and_bar"
"2625","De Brandweerkantine","50.8529895","5.685235","maastricht","restaurant"
"1837","De Colonel Zeist","52.0875595","5.2472434","zeist","restaurant"
"7445","Café de Korporaal🍺","51.8913069","5.0935209","leerdam","bar"
"4287","Tierney's Irish Pub & Restaurant","51.8440739","5.8623993","nijmegen","restaurant_and_bar"
"3055","Florentin Groningen","53.2243235","6.565676399999999","groningen","restaurant"
"3557","'t Plein","51.60996369999999","5.141217","udenhout","restaurant"
"435","Café Kobalt","52.37951940000001","4.8942993","amsterdam","restaurant"
"4337","Café Langereis","52.36612900000001","4.900139900000001","amsterdam","restaurant_and_bar"
"4019","Café Samson","51.8466444","5.8621694","nijmegen","restaurant_and_bar"
"3550","t Centrum Udenhout","51.6117722","5.1411667","udenhout","restaurant"
"5470","the Slock","53.0540848","4.799441799999999","den-burg","restaurant"
"2367","Café Sjiek","51.9183377","4.3964159","schiedam","restaurant_and_bar"
"627","Mata Hari","52.3746613","4.90013","amsterdam","restaurant_and_bar"
"4383","Brasserie de Kastanjehoeve","53.132494","6.6312849","glimmen","restaurant"
"4062","Eethuys-Café 'De Generaal'","52.2069893","5.283379799999999","baarn","restaurant_and_bar"
"2097","Spijkers Heiloo","52.6054795","4.7133757","heiloo","restaurant"
"988","Holy Moly Cantina","52.34986290000001","5.618941","harderwijk","restaurant_and_bar"
"7779","Brasserie Cafetaria Family Lisse","52.2602643","4.5592744","lisse","restaurant"
"3303","de Gouverneur","52.3858904","6.2740135","raalte","restaurant"
"4399","Gouds Glas","52.01239570000001","4.710547200000001","gouda","restaurant"
"2318","Eetcafé Lambik","53.2227881","6.555857","groningen","restaurant"
"6081","O'Casey's Irish Pub & Restaurant","52.0823496","4.305548599999999","den-haag","restaurant_and_bar"
"6277","Restaurant Dengh Utrecht - Trouwen - Vergaderen - Evenementen","52.1082481","5.034741299999999","utrecht","restaurant"
"4107","Biercafe Vliegende Hollander","51.4977235","3.6109","middelburg","restaurant_and_bar"
"5083","Stadscafé Du Commerce","51.2511111","5.7055556","weert","restaurant_and_bar"
"794","Bar Dó","52.3609249","4.8915084","amsterdam","bar"
"4955","Zilt","52.201214","4.388245500000001","katwijk-aan-zee","restaurant"
"46","Rijnbar","52.348817","4.904562","amsterdam","restaurant_and_bar"
"2289","Restaurant De SooS","51.2536888","5.706437200000001","weert","restaurant"
"4655","Cafe Nieuw Centraal","52.1366542","5.5894455","barneveld","restaurant"
"1279","Hygge Utrecht","52.102944","5.114335","utrecht","restaurant_and_bar"
"605","The Three Sisters","52.3664248","4.897028","amsterdam","restaurant_and_bar"
"5988","Restaurant Het Oude Tolhuys","52.0818986","5.159608299999999","utrecht","restaurant"
"1116","De Biertuin West","52.37007999999999","4.8514645","amsterdam","restaurant_and_bar"
"6503","Fa. Pekelhaaring","52.3533139","4.9027391","amsterdam","restaurant"
"3578","De Comm","51.776785","5.932684999999998","groesbeek","bar"
"593","Café 't Vossie","52.35953599999999","4.851885799999999","amsterdam","restaurant_and_bar"
"3171","Brasserie Le Quartier","52.0923646","4.3253825","den-haag","restaurant"
"4562","Eetcafé De Baron","52.0973805","5.0635064","utrecht","restaurant"
"3264","ANNO","52.3723462","5.21814","almere","restaurant"
"7088","Restaurant de Troubadour","52.5751719","6.615222099999999","hardenberg","restaurant"
"4058","Pavarotti Leidschendam","52.088027","4.3823323","leidschendam","restaurant"
"2661","Supermercado","51.9159259","4.4797785","rotterdam","restaurant"
"5938","Café Jansen","51.965215","6.287898999999999","doetinchem","restaurant"
"4880","Trattoria da Marco","52.25974099999999","4.554250499999999","lisse","restaurant"
"7150","Bar Club 188","52.08347909999999","4.340602699999999","den-haag","bar"
"536","Tjon Express","52.39997870000001","4.935411600000001","amsterdam","restaurant"
"5443","Lake House Rotterdam","51.97202100000001","4.5173901","bergschenhoek","restaurant"
"7094","The Old Fashioned Cocktails & Bites","52.3084386","6.5222527","rijssen","restaurant_and_bar"
"2727","Barlow","52.0798526","4.3167142","den-haag","restaurant_and_bar"
"239","Hoopman","52.3645953","4.8830078","amsterdam","restaurant_and_bar"
"2327","Café Old Town Hall","51.68583330000001","5.130555599999999","drunen","restaurant"
"774","Café brasserie Helden","52.3905921","4.839899999999999","amsterdam","restaurant"
"6008","Muziek & Bierspecialiteiten Café De Schavuit","52.08956029999999","5.2462868","zeist","bar"
"4041","Baek Food & Drinks","51.9188914","4.4847247","rotterdam","restaurant_and_bar"
"6827","Restaurant Dunes","52.3402343","5.136826600000001","almere","restaurant"
"4302","Restaurant Badhuis","52.10289119999999","5.123179899999999","utrecht","restaurant_and_bar"
"522","BoulesBitesBar Amsterdam-noord","52.4011001","4.9345316","amsterdam","restaurant_and_bar"
"4153","Dokjard","53.2198934","6.5570253","groningen","restaurant"
"1917","De Soester Duinen","52.1461977","5.3007728","soest","restaurant"
"1658","Havencafé","53.33103300000001","6.930162200000001","delfzijl","restaurant"
"2320","IJssel Restaurant","52.2500231","6.1510849","deventer","restaurant"
"3339","Batavia 1894","52.49181189999999","4.7983737","wormer","restaurant"
"967","Brasserie Meys","52.08904659999999","4.274891","den-haag","restaurant"
"1961","Restaurant Bird","52.2506743","6.155391499999999","deventer","restaurant"
"2779","Café van Ouds Nijmegen","51.84692039999999","5.862761699999999","nijmegen","restaurant_and_bar"
"4914","Tijm - Coffeehouse & Dinnerbar","52.10244599999999","5.1240469","utrecht","restaurant"
"3917","Café-Zaal Victoria","51.4698743","4.6590319","zundert","restaurant"
"7025","Het Zaanse Pannenkoeken Paleis","52.43920649999999","4.8265323","zaandam","restaurant"
"544","Barça","52.3571113","4.891689899999999","amsterdam","restaurant_and_bar"
"7051","Grandcafé Cheers","52.4604037","4.608498099999999","ijmuiden","restaurant_and_bar"
"1896","HEY!Pancake","52.19702969999999","5.417542799999999","amersfoort","restaurant"
"321","Café Restaurant De Ysbreeker","52.3574618","4.906755","amsterdam","restaurant"
"3780","Café De Kansel","52.6971688","6.1915985","meppel","restaurant"
"316","Steakhouse Al Salta","52.3666133","4.902072700000001","amsterdam","restaurant_and_bar"
"3343","Cafe de Druif","52.3700809","4.9106455","amsterdam","bar"
"7179","Beachclub Woody's","51.9473089","5.2811948","beusichem","restaurant"
"2665","Halve Maan","53.3254035","5.998969900000001","dokkum","restaurant"
"7081","Rembrandtkade 195","52.2677139","6.1284811","deventer","other"
"217","JinSo Lounge Bar & Restaurant","52.3128252","4.944891399999999","amsterdam","restaurant"
"3969","Bistro Pampus","52.5119838","6.0884139","zwolle","restaurant"
"6943","Bistro Belle","52.12709599999999","5.070915699999999","oud-zuilen","restaurant"
"7027","Esh Pitabar","52.3555795","4.8806012","amsterdam","restaurant"
"4799","Het StrandHuis Meerstad Groningen","53.2223641","6.659637300000001","groningen","restaurant"
"2011","Grand Café Efes","52.5585517","5.9165298","kampen","restaurant"
"1651","Nul33","52.1562418","5.3904622","amersfoort","restaurant"
"3248","Grand Café De Heren van Zeist","52.0885972","5.2486306","zeist","restaurant_and_bar"
"463","The Seafood Bar","52.36869579999999","4.8906118","amsterdam","restaurant_and_bar"
"2714","Restaurant Markt 11","52.37648009999999","5.7835588","nunspeet","restaurant"
"6916","Café Wunderkammer","51.8470512","5.8614883","nijmegen","restaurant_and_bar"
"157","Felix II","52.2239303","5.176870799999999","hilversum","bar"
"1947","Bar Eetcafe Te Pas","52.15342829999999","5.3786993","amersfoort","restaurant"
"647","Le French Café","52.3635145","4.9334488","amsterdam","restaurant"
"4329","Restaurant Zicht","51.998848","5.675404299999999","bennekom","restaurant"
"6718","'t Zusje Deventer","52.2531445","6.165010499999999","deventer","restaurant_and_bar"
"178","Cafe Brel","52.3841667","4.870277800000001","amsterdam","restaurant_and_bar"
"808","Bar de Molen","52.4931227","5.075131100000001","volendam","restaurant_and_bar"
"2604","ÁMOI Gieterveen","53.02502210000001","6.8335559","gieterveen","restaurant_and_bar"
"2974","Eat Tasty","53.2324206","6.567725499999999","groningen","restaurant"
"852","Café Moeke Spijkstra","52.272578","5.242458000000001","blaricum","restaurant_and_bar"
"1592","Café De Verfrissing","52.2074082","5.294688499999999","baarn","restaurant_and_bar"
"5079","Brownies&downieS Almelo","52.35510099999999","6.664369399999999","almelo","restaurant"
"1358","BAR SIL","52.01126919999999","4.3621082","delft","restaurant_and_bar"
"6355","Hotel New York","51.9041459","4.4845913","rotterdam","restaurant_and_bar"
"346","Café Flamingo","52.3554182","4.8933858","amsterdam","restaurant"
"2791","Brasserie De Hofvlietvilla","52.514454","6.0879938","zwolle","restaurant"
"88","Café Restaurant Hoogendam","52.3834114","4.891560099999999","amsterdam","restaurant"
"889","Café Walenburg","51.9290072","4.467315199999999","rotterdam","restaurant"
"6338","Eetcafé 't Centrum","51.93288889999999","4.7827861","bergambacht","restaurant"
"1070","Sophias","53.1973208","5.7919149","leeuwarden","restaurant"
"602","DroversDog Heemstedestraat","52.3514427","4.847796","amsterdam","restaurant"
"959","Brewpub Reijngoud","51.9284744","4.478061499999999","rotterdam","restaurant_and_bar"
"761","Café Gruter","52.3570244","4.874949300000001","amsterdam","restaurant"
"3944","Café de Keyzer","52.15594979999999","4.4862229","leiden","restaurant_and_bar"
"658","Noori Fusion","52.3649607","4.883004300000001","amsterdam","restaurant"
"2602","Eetbar Kandinsky Waalwijk","51.69038250000001","5.0667829","waalwijk","restaurant_and_bar"
"1224","Walhalla","52.35140930000001","5.6138165","harderwijk","restaurant_and_bar"
"693","Hongdae Amsterdam","52.3638313","4.884966800000001","amsterdam","restaurant_and_bar"
"615","GOOS","52.34487799999999","4.894836","amsterdam","restaurant_and_bar"
"4410","De Blauwe Engel","52.34059130000001","4.8734951","amsterdam","restaurant"
"6237","BISOUS","52.3547526","4.8878417","amsterdam","restaurant"
"7775","KLUTS koffie & vegan bakkerij","52.0911976","5.1228247","utrecht","restaurant"
"5779","Van De Kaart","50.8477901","5.692353600000001","maastricht","restaurant"
"3087","Pure","53.2175983","6.566456100000001","groningen","restaurant"
"6633","Petite Marie","52.14818269999999","5.3881928","amersfoort","restaurant"
"507","The Black Dog","52.3713807","4.8894583","amsterdam","restaurant_and_bar"
"6187","Het Wagenhuis","51.585905","4.2166461","nieuw-vossemeer","restaurant_and_bar"
"6835","Café & Restaurant De Eendracht Hilversum","52.228217","5.1666633","hilversum","restaurant_and_bar"
"3720","Bistro Skål","51.81563689999999","3.9002913","ouddorp","restaurant"
"5487","Paviljoen de Leyen","53.15656560000001","6.08145","rottevalle","restaurant"
"5456","Restaurant de Eetvilla","52.15870999999999","5.306549999999999","soest","restaurant"
"6594","Bistro 'Allo 'Allo!","50.8554214","5.6914146","maastricht","restaurant"
"1626","Tapasbar Hacienda","51.8142045","4.6464132","zwijndrecht","restaurant"
"1029","Frenkie Hoofddorp","52.3045483","4.6942222","hoofddorp","restaurant"
"5750","Restaurant De Schone Lei","51.93884","4.524649200000001","rotterdam","restaurant"
"692","Euro Pizza Restaurant","52.3839406","4.9219912","amsterdam","restaurant"
"981","De Gist","52.0098048","4.355788500000001","delft","restaurant_and_bar"
"4034","Café De Lindeboom","52.1872438","5.607555899999999","voorthuizen","restaurant"
"7125","Restaurant Graan voor Visch","52.4308515","4.6993678","velsen-zuid","restaurant"
"882","Osteria Vicini","51.9258102","4.517898","rotterdam","restaurant"
"3795","Café-Restaurant Soif","51.44132470000001","3.5744925","vlissingen","restaurant_and_bar"
"572","Café Anno 1890","52.3223588","4.8572018","amsterdam","restaurant_and_bar"
"7103","Nijkamp De Echte Bakker, Restaurant, IJssalon","52.281677","6.422250000000001","holten","restaurant"
"408","Ichi-E","52.3130786","4.9453681","amsterdam","restaurant"
"6987","Los Cosmos","52.1596532","4.4900166","leiden","restaurant_and_bar"
"4347","Het Grote Kabouterbos","52.554951","5.81236","dronten","restaurant"
"5452","Bruna Heerde","52.3871631","6.041405399999999","heerde","other"
"2935","Thai Jasmine Authentiek Thais Restaurant","53.2156377","6.5695591","groningen","restaurant"
"1681","De Poort van Megen","51.82179980000001","5.566026600000001","megen","restaurant"
"1726","Bayonne Restobar","52.0847634","4.2993632","den-haag","restaurant"
"4818","Café Krijnen","51.49623219999999","4.2769369","bergen-op-zoom","restaurant"
"3515","De Enckhuyser","52.7037369","5.2902396","enkhuizen","bar"
"2740","Grand Café Staal","52.4597185","4.6243097","ijmuiden","restaurant"
"7114","Cafe Plan West","52.3713324","4.8592013","amsterdam","restaurant_and_bar"
"2624","Zondag","50.84955220000001","5.6985936","maastricht","restaurant_and_bar"
"663","Coba","52.38497719999999","4.9251429","amsterdam","restaurant"
"3365","Het Genot van Grootschermer","52.5835592","4.850309900000001","grootschermer","restaurant_and_bar"
"2947","The Cabin","53.2146859","6.5663242","groningen","restaurant_and_bar"
"1798","Café Restaurant de Eendracht Abcoude","52.27022059999999","4.9742199","abcoude","restaurant_and_bar"
"31","Pension Homeland","52.3730206","4.916742699999999","amsterdam","restaurant_and_bar"
"2558","Herberg Sint Petrus","51.48488889999999","5.1366472","hilvarenbeek","restaurant"
"1902","Teahouse 't Bluk","52.23513589999999","5.2209455","laren","restaurant"
"3355","Guulke eten & drinken","51.2829415","5.750072499999999","nederweert","restaurant"
"5173","Cafe Bloopers","51.9824685","5.905059800000001","arnhem","restaurant"
"2572","Café SamSam","51.5876623","4.7768149","breda","bar"
"1801","Witkamp B.V.","52.193479","6.3651361","laren","restaurant"
"2069","Restaurant & Grandcafé Liff","52.994045","6.562692","assen","restaurant"
"4094","The Green House","52.0868204","5.108060399999999","utrecht","restaurant"
"1211","Home Food & Drinks","52.0836068","4.330801699999999","den-haag","restaurant"
"3542","Groot Speijck -eten en drinken in het bos-","51.56362490000001","5.197788900000001","oisterwijk","restaurant"
"5726","Double B -Bar & Kitchen-","53.2014898","5.7953069","leeuwarden","restaurant"
"86","De Gele Kanarie - Goudsesingel","51.92415690000001","4.4894962","rotterdam","bar"
"4676","Klein Centraal","52.3909437","4.607877999999999","overveen","restaurant"
"3744","Bar 70","52.2049028","4.3941832","katwijk-aan-zee","restaurant"
"5614","Cloos","52.07954609999999","4.3165746","den-haag","restaurant"
"5284","Moya Tapas Club","52.07982250000001","4.3167856","den-haag","restaurant"
"3897","Miss Scarlett","52.2977188","4.9579007","amsterdam","restaurant"
"6737","Bistrobar Berlin","51.84143059999999","5.870986099999998","nijmegen","restaurant_and_bar"
"4121","Het Koffiepand","51.4972916","3.609757199999999","middelburg","restaurant"
"6919","Mamma Mia","53.1059961","6.874980199999999","veendam","restaurant"
"7128","Restaurant Kiyoshi (Sushi & Fusion)","52.0275362","5.5590192","veenendaal","restaurant"
"7083","Restaurant de Tolplas","52.4138179","6.558129100000001","hoge-hexel","restaurant"
"6641","Restaurant Lef Dordrecht","51.8156746","4.6617294","dordrecht","restaurant"
"5067","Noah's Arq","52.3710179","4.911966","amsterdam","restaurant_and_bar"
"2612","OMG! Burger","52.3761076","4.8937804","amsterdam","restaurant"
"4420","More-Itz","51.70960230000001","4.815209800000002","drimmelen","restaurant_and_bar"
"7126","Breman Brasserie","52.3742414","4.9346601","amsterdam","restaurant"
"12","Waterkant","52.3699808","4.876091400000001","amsterdam","bar"
"6106","Brasserie Vrijthof 9","50.8491662","5.689450699999999","maastricht","restaurant"
"5387","Café ZUS","51.8075909","5.7254722","wijchen","restaurant"
"270","Café P96","52.37706739999999","4.884866","amsterdam","restaurant_and_bar"
"3587","Café Ons Dorp","51.4736111","5.5477778","nuenen","restaurant"
"3663","Zuid by Adrian Zarzo","51.4347018","5.4841069","eindhoven","restaurant"
"788","Restaurant Nomads","52.3564173","4.9299214","amsterdam","restaurant"
"556","GIA Restaurant","52.3580573","4.8045173","amsterdam","restaurant"
"5753","Wildstube","51.90974469999999","4.478070599999999","rotterdam","restaurant"
"2867","Restaurant ff Swanjéé","51.6887945","5.3087642","s-hertogenbosch","restaurant"
"636","Calf & Bloom","52.3671824","4.891537700000001","amsterdam","restaurant"
"6967","Chef aan de Zaan","52.51739320000001","4.788847500000001","westknollendam","restaurant_and_bar"
"715","NAKED | Amsterdam","52.3736185","4.8923282","amsterdam","restaurant_and_bar"
"5727","Otra Más Brasserie","52.3384004","4.959975300000001","diemen","restaurant"
"4140","'t Sjpaorhutje","51.0366744","5.8552787","nieuwstadt","restaurant"
"1387","Cafe Wester","52.3760187","4.8838742","amsterdam","bar"
"6658","Café Buddingh","51.8082144","4.6686449","dordrecht","restaurant"
"5040","Eye Film Museum","52.38434799999999","4.901276","amsterdam","restaurant"
"117","Cafe Tabac","52.3801768","4.8885231","amsterdam","restaurant_and_bar"
"7082","Grotestraat 6","51.84757","5.865188900000001","nijmegen","other"
"3025","Pierement","53.2151052","6.5663708","groningen","restaurant_and_bar"
"4540","Sound & Soul foodbar","51.9824876","5.919177499999999","arnhem","restaurant"
"2686","BRUT Food & Wine Bar","51.81462519999999","4.665254099999999","dordrecht","restaurant_and_bar"
"311","Poco Loco","52.37255589999999","4.899589400000001","amsterdam","restaurant_and_bar"
"6325","Eetcafé Stam","51.90832469999999","4.3422059","vlaardingen","restaurant"
"5212","Het Munsterhof B.V.","51.1937922","5.988007700000001","roermond","restaurant"
"3614","Boerderij Denissen","51.5834667","5.1462228","berkel-enschot","restaurant"
"6047","Dorus Amsterdam","52.3712902","4.872653699999999","amsterdam","restaurant"
"4817","Bovenmeester diner & lounge","52.7879872","6.1130738","steenwijk","restaurant"
"390","Café Mulder","52.35972779999999","4.8912909","amsterdam","restaurant"
"3195","De Babbelaar","51.5651472","3.551079","oostkapelle","restaurant"
"4554","Heeren Van Aemstel Arnhem","51.98067","5.905037","arnhem","restaurant_and_bar"
"4644","Bistro Bos","52.38226239999999","4.855965","amsterdam","restaurant"
"655","Anjappar Amsterdam - Chettinad Indian restaurant","52.3548304","4.8806387","amsterdam","restaurant"
"1002","Restaurant De Brasserie","52.26403120000001","4.636057399999999","nieuw-vennep","restaurant"
"3617","Ribs 'N More","51.3196469","5.9992995","helden","restaurant"
"7864","BLOK 63-S","51.446743","5.460043600000001","eindhoven","restaurant"
"2983","De Negende Cirkel","53.21822419999999","6.5706483","groningen","bar"
"1898","Lapart","52.15663869999999","5.3895984","amersfoort","bar"
"7006","Brasserie 't Wolderwijd","52.31149780000001","5.5450987","zeewolde","restaurant"
"4113","Tapas Middelburg","51.5006687","3.6107854","middelburg","restaurant"
"4862","Keigo","52.274395","5.1648891","bussum","restaurant"
"4259","'t Zusje Bergen op Zoom","51.4964713","4.2816714","bergen-op-zoom","restaurant"
"2958","The Dog's Bollocks","53.2194039","6.564629999999999","groningen","restaurant_and_bar"
"3467","the Prologue","52.0038167","5.461504899999999","amerongen","restaurant"
"2072","The Bastard","52.56078420000001","5.9152176","kampen","restaurant"
"976","Bar Restaurant Sijf","51.9174534","4.474270100000001","rotterdam","restaurant"
"984","The River","52.0667074","4.365768","voorburg","restaurant"
"1144","Bodrum Döner Kebap Huis","52.63380689999999","4.742349699999999","alkmaar","restaurant"
"4594","Rayleigh & Ramsay Oostpoort","52.3560086","4.9288622","amsterdam","restaurant_and_bar"
"2946","Dinercafé Plezant","53.2302025","6.574072999999999","groningen","restaurant"
"2564","Bar Blink","51.91839820000001","4.489488500000002","rotterdam","restaurant_and_bar"
"2979","47 Anno Domini Groningen","53.21545889999999","6.571428699999998","groningen","restaurant_and_bar"
"4395","Casa Chow Gouda","52.0122103","4.7112951","gouda","restaurant"
"2360","De Buren Van...","51.8902857","5.8961828","bemmel","restaurant"
"2259","Robert's Pub","52.024694","5.554633","veenendaal","restaurant"
"6462","Paviljoen Sluishaven","51.6605077","4.3137355","ooltgensplaat","restaurant"
"1905","Vegitalian Pizzabar","52.09238289999999","5.1295833","utrecht","restaurant"
"2290","Eetcafe en terras `t Jachthuis","51.93721770000001","4.300796","maasland","restaurant"
"4882","Restaurant De Vier Seizoenen","52.25951429999999","4.5536812","lisse","restaurant"
"3783","Restaurant & Wijnbar De Nachtwacht","52.6967491","6.1912476","meppel","restaurant"
"6997","Bar Restaurant Pavlov","52.076789","4.3160941","den-haag","restaurant"
"4967","Grand Café 't Gelagh","51.8315035","4.9746662","gorinchem","restaurant"
"4883","Restaurant Ibis","52.25936830000001","4.5536569","lisse","restaurant"
"3741","Brasserie - Bar De Zalm","52.0122662","4.711097999999999","gouda","restaurant"
"3972","Grand Café Central ""de Buren""","52.01186569999999","4.7116198","gouda","restaurant"
"6990","Stadscafé Goeree","51.8182406","3.977908800000001","goedereede","bar"
"876","Staring at Jacob | Amsterdam","52.36231","4.861847099999999","amsterdam","restaurant"
"3451","Bistro La Plume","52.38059639999999","4.638179900000001","haarlem","restaurant"
"2632","Eetcafé het Plein","53.09947799999999","4.762131999999998","de-koog","restaurant"
"3610","Plein 11","52.0110807","4.3622767","delft","restaurant"
"6021","CECE bar urbana","51.9248127","4.4764782","rotterdam","bar"
"7077","Leerdam Sport '55","51.89283529999999","5.0766769","leerdam","other"
"7028","Café Prince Hendrik","52.21153400000001","5.284252","baarn","restaurant"
"600","Café Blek","52.3460929","4.8996543","amsterdam","restaurant"
"937","The Streetfood Club","52.09299230000001","5.122149200000001","utrecht","restaurant"
"6717","'t Zusje Breda","51.59","4.7736111","breda","restaurant_and_bar"
"1822","Stars","51.8228165","4.129177999999999","hellevoetsluis","restaurant_and_bar"
"1342","De Buren Gennep","51.69807899999999","5.9722295","gennep","restaurant"
"612","Cafe Luxembourg","52.3686556","4.888705600000001","amsterdam","restaurant"
"6349","Restaurant Zed","51.88734609999999","4.4879179","rotterdam","restaurant"
"3004","Hasret","53.21652219999999","6.557702799999999","groningen","restaurant"
"3997","DENF Coffee Eindhoven","51.4389165","5.4742594","eindhoven","restaurant"
"724","The College Hotel","52.3527765","4.8837347","amsterdam","restaurant_and_bar"
"231","De Belhamel","52.3794184","4.892045299999999","amsterdam","restaurant"
"5587","Bar/Restaurant SEB","52.0746213","4.264461","den-haag","restaurant"
"1023","Tandoori Lounge","52.3036892","4.6921133","hoofddorp","restaurant"
"1027","Trattoria Buoni Amici","52.30400789999999","4.6915285","hoofddorp","restaurant"
"4397","Brasserie Copper","52.01199889999999","4.711492499999999","gouda","restaurant_and_bar"
"5306","Brasserie 'Het Vliegerhuys'","52.51305559999999","6.0944444","zwolle","restaurant"
"2194","Moeke Delft","52.0117237","4.3623831","delft","restaurant"
"2543","Halte Assel","52.20097510000001","5.8366643","hoog-soeren","restaurant"
"574","Het Punt","52.3909493","4.878463099999999","amsterdam","restaurant"
"5993","Villa Borghese","52.302288","4.844291","amstelveen","restaurant"
"5934","Wine & Seafoodbar Areia by Vigo","52.10038429999999","4.2708262","den-haag","restaurant"
"3826","Alexandros","52.3131557","4.8754322","amstelveen","restaurant"
"3168","Citroen & Peper","52.1603861","5.3638111","amersfoort","restaurant"
"2942","Buddha Eye","53.2156467","6.5714992","groningen","restaurant"
"4105","Kloveniersdoelen Houttuinen","51.4971621","3.606431100000001","middelburg","restaurant"
"4021","Restaurant Zilt & Zoet","52.15960949999999","5.190016200000001","maartensdijk","restaurant"
"1600","V.o.f. Café La Clé","50.8499436","5.6939304","maastricht","restaurant_and_bar"
"2563","Eetcafé De Kwikkel","52.770339","5.108576999999999","medemblik","restaurant"
"6366","Restaurant Thailand","51.8790742","4.5236036","rotterdam","restaurant"
"5462","De Ruigenhoek","52.2918663","4.526336300000001","noordwijkerhout","restaurant"
"4730","café keet - koffie en keuken","52.0715509","5.1102009","utrecht","restaurant"
"6564","Broodjesbar de Kade","50.8502492","5.6938323","maastricht","restaurant"
"3396","Café Camille","52.4856","4.658","beverwijk","restaurant"
"7694","Pier 7 Zandpaviljoen","51.4485993","3.5608864","vlissingen","restaurant"
"2642","Stadscafe Weena","51.9235273","4.4748866","rotterdam","restaurant"
"1124","Brasserie Harkema","53.1975785","6.580554800000001","groningen","restaurant"
"3842","De Après Skihut","51.9223802","4.476713999999999","rotterdam","restaurant_and_bar"
"1376","Café Zuid","50.8458595","5.700086599999999","maastricht","restaurant_and_bar"
"3691","BrewDog Rotterdam","51.92282179999999","4.4809541","rotterdam","restaurant_and_bar"
"1040","Kaap Hoorn","53.17934770000001","6.555465400000001","haren","restaurant_and_bar"
"1389","De Pannekoekenbakker Thorn","51.1613292","5.842183700000001","thorn","restaurant"
"929","Margherita Tutta La Vita","52.3290043","4.9560219","diemen","restaurant"
"3563","Studio/K","52.3652425","4.9360272","amsterdam","restaurant_and_bar"
"7018","Café Tapperij Zalen Kansas","51.7297257","5.8823471","cuijk","bar"
"499","Purnama Indonesian Kitchen & Bar","52.3638778","4.9337705","amsterdam","restaurant"
"3071","Amicitia 2","53.228336","6.5600005","groningen","restaurant"
"5578","Brasserie Meelfabriek Zijlstroom","52.1706223","4.5157148","leiderdorp","restaurant"
"817","Lotje Wine & Dine","52.4928798","5.0741889","volendam","restaurant"
"4588","Grand Cafe Cornelis","52.3475952","5.985127900000001","epe","restaurant_and_bar"
"811","Café Lennon's","52.4928316","5.0738788","volendam","restaurant"
"3317","Rafi","52.381942","4.883675","amsterdam","restaurant"
"1008","Grandcafé Maze","52.2636049","4.635158999999999","nieuw-vennep","bar"
"5797","Camping Geversduin","52.5324274","4.6443945","castricum","other"
"4514","Restaurant de Admiraal","52.3510076","5.6163455","harderwijk","restaurant"
"915","Cantina Caliente","52.3623527","4.9108398","amsterdam","restaurant"
"871","'t Zusje Woerden","52.084328","4.8878558","woerden","restaurant"
"1121","De Bosbaan","52.3290445","4.854036900000001","amstelveen","restaurant"
"5022","Bengels","51.5455481","5.1779139","moergestel","restaurant"
"4960","De Pleats","52.944318","5.628501","woudsend","restaurant"
"768","SORA Sapporo Ramen","52.3526289","4.8887013","amsterdam","restaurant"
"4916","BEER","51.9894745","5.916104000000001","arnhem","restaurant"
"57","CARTER","52.35420000000001","4.869181600000001","amsterdam","restaurant_and_bar"
"4548","Eten bij LOO","51.94191489999999","4.546789799999999","rotterdam","restaurant_and_bar"
"2302","Café Dixi","51.906483","4.167646","brielle","restaurant"
"6881","Blossom by KP | Café Restaurant","52.1567269","4.4930971","leiden","restaurant_and_bar"
"743","Taparia Amsterdam","52.37457269999999","4.9346631","amsterdam","restaurant_and_bar"
"1656","Dikke Dirck Amersfoort","52.1570675","5.390495899999999","amersfoort","restaurant_and_bar"
"2256","Het Wapen Van Rozenburg","51.90487890000001","4.2488794","rozenburg","restaurant"
"6860","Hertog Jan van Brabant","51.80713830000001","5.4404594","lith","restaurant"
"7631","SJIK Borrels & Bites","52.253353","5.3782171","bunschoten-spakenburg","restaurant"
"6091","Jantjes lief","52.5126923","6.097720600000001","zwolle","restaurant"
"3061","Restaurant Voilà","53.22328","6.570007899999999","groningen","restaurant"
"1338","Brasserie Staverden","52.28518700000001","5.7404077","ermelo","restaurant"
"809","Restaurant Cafe de Dijk","52.49319980000001","5.075267900000001","volendam","restaurant"
"843","Restaurant Cafe van den Hogen","52.493292","5.075350999999999","volendam","restaurant"
"4692","De Pastorie","51.66302080000001","4.5350262","klundert","restaurant"
"3623","Bar socio. Nijmegen","51.8431191","5.8628826","nijmegen","bar"
"1325","Destino","51.9333514","4.487206","rotterdam","restaurant"
"6942","La Cubanita Leeuwarden","53.1993968","5.792035999999999","leeuwarden","restaurant_and_bar"
"4102","Blue District Restaurant","52.6336196","4.751143899999999","alkmaar","restaurant"
"1146","Stadsstrand De Kade","52.63487929999999","4.748533999999999","alkmaar","restaurant"
"2147","Le Nord | by Grégory Nicole","52.1507398","5.223832599999999","bilthoven","restaurant"
"2241","Meydani Restaurant Nijkerk","52.22359369999999","5.4878578","nijkerk","restaurant"
"172","Annie's","52.159403","4.4913809","leiden","restaurant"
"7206","Brasserie De Buurt","52.61325040000001","4.8210807","stompetoren","restaurant"
"1854","Eetbar DIT","51.68830869999999","5.301359199999999","s-hertogenbosch","restaurant_and_bar"
"2903","Stadscafé Van der Werff","52.1637457","4.4847893","leiden","restaurant_and_bar"
"700","Ferilli's Caffè Ristorante","52.3499857","4.8778675","amsterdam","restaurant_and_bar"
"4455","Coffee Habits Specialty Coffee / Smedestraat","52.3822757","4.636273200000001","haarlem","restaurant"
"4256","Bomboca","51.9805986","5.9158879","arnhem","restaurant"
"2726","Tapperij Seghwaert","52.063822","4.514514","zoetermeer","bar"
"3287","Café Jos Meesterschenkerij","51.83616660000001","5.8782931","nijmegen","restaurant_and_bar"
"4056","Studio Dependance","51.58953169999999","4.7744007","breda","restaurant_and_bar"
"1552","Alle Hens","52.1283685","4.6616803","alphen-aan-den-rijn","restaurant_and_bar"
"4852","Pavilion Restaurant 't Schor","51.3538366","4.110327799999999","graauw","restaurant"
"3509","Het Oude Raadhuis Eemnes","52.250642","5.265996","eemnes","restaurant"
"3126","Olt Ghiessen","51.8433594","4.8661566","giessenburg","restaurant"
"4474","Matto NOORD","52.3844664","4.928890099999999","amsterdam","restaurant"
"1498","Waalzicht","51.8539363","5.866306300000001","nijmegen","restaurant"
"2934","News Cafe","53.2181913","6.566655699999999","groningen","restaurant"
"5415","Bakker Bart Doetinchem","51.9651812","6.288956899999999","doetinchem","restaurant"
"2366","Dorstig Cocktailbar","51.3688574","6.166903899999999","venlo","bar"
"5444","Restaurant de Vogelensangh","52.33109239999999","4.579422999999998","vogelenzang","restaurant"
"1432","De Ballentent","51.9046348","4.474061799999999","rotterdam","restaurant"
"3106","Bistro Bommen Berend","53.2197846","6.566986800000001","groningen","restaurant"
"282","Amstelhaven","52.3593602","4.9060405","amsterdam","restaurant_and_bar"
"5298","Alberto's","52.22372439999999","5.4887474","nijkerk","restaurant_and_bar"
"521","Eetcafe Singel 404","52.36891499999999","4.8874492","amsterdam","restaurant"
"262","Cafe Tisfris","52.36963209999999","4.9007912","amsterdam","restaurant"
"214","Brasserie van Baerle","52.3538727","4.881274800000001","amsterdam","restaurant"
"4504","PK bar & kitchen Bilthoven","52.129326","5.206531","bilthoven","restaurant"
"4161","Café De Veluwe","52.3005952","5.629121899999999","ermelo","bar"
"479","Anne&Max Amsterdam Zeeburg","52.3745815","4.935180400000001","amsterdam","restaurant"
"858","Café Restaurant Zèta","52.07595509999999","4.309087600000001","den-haag","restaurant"
"3104","Frederick the Great","53.2108152","6.581121599999999","groningen","restaurant"
"745","Club Prime","52.36564569999999","4.896298499999999","amsterdam","bar"
"5192","Sur Meuse","51.3657569","6.1545773","venlo","restaurant"
"3384","Café-Restaurant De Gouden Leeuw","53.041343","5.780552000000001","terherne","restaurant"
"3040","Semsom","53.2189969","6.564592800000001","groningen","restaurant"
"6628","WOODSTONE Pizza and Wine Hoofddorp","52.3018329","4.6954664","hoofddorp","restaurant"
"5203","Bij Babette","52.3838227","4.635913","haarlem","restaurant"
"4335","De Bistrooh","52.0804477","4.3030123","den-haag","restaurant"
"2658","de zoute kater","52.0819972","4.295286799999999","den-haag","restaurant"
"758","Benji’s","52.36575759999999","4.8605318","amsterdam","restaurant_and_bar"
"1054","Noorderlicht Café","52.399572","4.896833000000001","amsterdam","restaurant"
"5318","De Oude Mol","52.07978860000001","4.3066172","den-haag","restaurant"
"6268","L.V.V.S. Augustinus","52.1588186","4.485473599999999","leiden","restaurant"
"7566","Paviljoen Flonk-restaurant Blauwestad","53.1817208","7.076953","finsterwolde","restaurant"
"1594","Het Vliegende Paard","52.5124716","6.0908592","zwolle","restaurant_and_bar"
"1458","Soia - Beach Oog In Al","52.0949934","5.0788722","utrecht","restaurant"
"4969","De Versnapering","52.519392","5.485225","lelystad","restaurant"
"3709","Het Wapen van Zwanenburg","52.37679739999999","4.7472316","zwanenburg","restaurant"
"5326","Grand Café Enjoy","51.9928362","4.2078467","naaldwijk","restaurant"
"3331","Eetcafé Schotsheuvel","52.3555652","4.8735426","amsterdam","restaurant"
"2908","De Drie Dorstige Herten","52.087324","5.123393999999998","utrecht","restaurant_and_bar"
"3089","Café De Kleine Oosterpoort","53.2123737","6.5787643","groningen","bar"
"1253","Bar Bouche","52.3560243","4.911892800000001","amsterdam","restaurant_and_bar"
"4936","Inca Mania","52.0117243","4.3600292","delft","restaurant"
"765","Lokaal van de Stad","52.3517303","4.846176499999999","amsterdam","restaurant_and_bar"
"1620","In-Credible","51.84637069999999","5.869200699999999","nijmegen","restaurant_and_bar"
"3755","de Linde","51.7464883","5.6842632","reek","restaurant"
"383","MR PORTER","52.37277779999999","4.890000000000001","amsterdam","restaurant_and_bar"
"4369","Paviljoen Hanzezicht","52.5615633","5.9188107","kampen","restaurant"
"649","4850","52.3577937","4.913378","amsterdam","restaurant_and_bar"
"4143","'t Spoortje Losser","52.25952760000001","7.0074789","losser","restaurant"
"6855","Sushi San","52.1073396","5.237466","zeist","restaurant"
"681","Yuan’s Hot Pot Valley 袁记串串香山谷店","52.3370641","4.877150299999999","amsterdam","restaurant"
"2837","De Kornuiten","52.1551556","6.7418724","haaksbergen","restaurant"
"6235","Gio's by the River","52.40205209999999","4.8902135","amsterdam","restaurant"
"2978","Dinercafé De Markies","53.2218735","6.550936199999999","groningen","restaurant"
"4586","Café Soestdijk","53.217986","6.5627678","groningen","restaurant"
"3659","Restaurant Arsenaal 1824","51.8451188","5.865493","nijmegen","restaurant"
"334","Snackbar Van Vliet","52.3624711","4.801038599999999","amsterdam","restaurant"
"7186","Feed Amsterdam","52.3520402","4.9130674","amsterdam","restaurant_and_bar"
"376","RADION Amsterdam","52.34564899999999","4.8254828","amsterdam","restaurant"
"4708","Mariapaviljoen","51.690616","5.304526699999998","s-hertogenbosch","restaurant"
"1256","No 10 Coffee - Rotterdam","51.92290799999999","4.493388299999999","rotterdam","restaurant"
"580","De Pizzabakkers","52.36563659999999","4.911302099999999","amsterdam","restaurant"
"4224","Eetcafé Nooitgedagt","53.1750833","5.415825","harlingen","restaurant"
"5724","Café de Gekroonde Suikerbiet","51.6472257","3.9241301","zierikzee","restaurant_and_bar"
"1190","Cafe De Zaaier","51.96613139999999","5.664588699999999","wageningen","restaurant_and_bar"
"4074","Café Binnenvisser","52.3715254","4.8704009","amsterdam","restaurant"
"2565","IEGEWIES eten & drinken","52.8359445","4.6938624","callantsoog","restaurant_and_bar"
"2745","'t Oude Stadthuys","51.82960680000001","4.9744593","gorinchem","restaurant"
"2685","Restaurant On The Rock Aalsmeer","52.252282","4.7566161","aalsmeer","restaurant"
"4575","Kanarie Club","52.36727029999999","4.8678317","amsterdam","restaurant_and_bar"
"4233","'t Hookhoes Bier, Wijn & Eetlokaal","52.3541198","6.6666145","almelo","restaurant_and_bar"
"6695","Café Pompette","51.9365562","4.472761900000001","rotterdam","restaurant"
"730","Bar & Restaurant De Kop van Oost","52.3669026","4.9272033","amsterdam","restaurant_and_bar"
"6956","Pastanini","52.0943841","4.2769411","den-haag","restaurant"
"5878","Grand Café Lubeck","52.5036421","6.090549500000002","zwolle","restaurant"
"3673","De Pizzakamer","52.3524251","4.8946201","amsterdam","restaurant"
"520","Sushi Fanatics","52.35930089999999","4.9138099","amsterdam","restaurant"
"1983","The Old Pepper Mill","52.1850689","5.4394958","hoevelaken","restaurant"
"1760","Andrea's borrelbar","51.5155097","5.3997447","best","restaurant"
"4184","Proeflokaal Bakker","52.5081588","4.9496822","purmerend","restaurant"
"2297","De Dikke Deur","52.25890190000001","5.607661500000002","putten","bar"
"6099","MARQUE","52.6383701","5.061124500000001","hoorn","restaurant"
"1569","FortVier","51.9495139","5.831074699999999","arnhem","restaurant_and_bar"
"835","Restaurant Bar Kantoor","52.386606","4.875297","amsterdam","restaurant"
"5231","Cafe Bommel Zeist","52.0910155","5.243682200000001","zeist","bar"
"4471","Bistro Bon","51.6899019","5.299629499999999","s-hertogenbosch","restaurant"
"2846","Restaurant 's-Molenaarsbrug B.V.","52.1423514","4.6467447","alphen-aan-den-rijn","restaurant"
"5610","Pipa Streetfood Bar","52.161949","4.4825365","leiden","restaurant"
"5743","Bodega y Tapas Noorderplantsoen","53.22748310000001","6.560731499999999","groningen","restaurant"
"428","Cannibale Royale Ruysdael","52.3536429","4.887230399999999","amsterdam","restaurant"
"4814","Limoncello","52.091666","4.304588","den-haag","restaurant"
"4322","Vino e Pane","52.0166384","5.1785865","houten","restaurant"
"1303","Het Dinghuis","51.4697547","5.802428000000001","deurne","restaurant"
"969","De Durpsherberg","51.56827269999999","5.373979100000001","liempde","restaurant_and_bar"
"1427","Pannenkoekenhuis De Koekenbakkers","51.639475","5.512737","heeswijk-dinther","restaurant"
"5995","Pimpelmees","51.8270843","5.8472574","nijmegen","restaurant"
"805","The Papeneiland Café","52.3804627","4.887970399999999","amsterdam","restaurant_and_bar"
"1408","Restaurant De Beren Doetinchem","51.9657666","6.289256200000001","doetinchem","restaurant"
"650","Cafe Sweelinck","52.35620170000001","4.897722400000001","amsterdam","restaurant"
"2022","Café de Pompier","52.08610410000001","4.8832381","woerden","restaurant_and_bar"
"1284","Jozef eten & drinken","52.0894962","5.1182595","utrecht","restaurant_and_bar"
"5960","De Beierd","52.0111555","4.3608353","delft","restaurant"
"4025","Lounge 3","52.1873522","5.6071097","voorthuizen","restaurant"
"4120","Strandrestaurant De Dam","51.58771499999999","3.631063399999999","vrouwenpolder","restaurant"
"6101","Twenty7 aan de Maas","51.9075023","4.480211800000001","rotterdam","restaurant"
"362","Café Restaurant Vrijburcht","52.36104599999999","4.975547099999999","amsterdam","restaurant"
"3909","Wapen van Voorschoten","52.1243856","4.4457802","voorschoten","restaurant"
"3268","Eetcafé 'De Ouwe Blauwe'","52.460472","5.0368144","monnickendam","restaurant"
"1366","Chez Minée","51.6980642","5.3043684","s-hertogenbosch","restaurant"
"2925","Café-Restaurant De Ringweg","53.21194439999999","6.595555599999999","groningen","restaurant"
"947","Café Ddadi","52.0991537","5.111401899999999","utrecht","restaurant"
"5135","Bistro De Bock","52.08524739999999","4.8826453","woerden","restaurant"
"6917","Dapper Café","52.3641678","4.9263203","amsterdam","restaurant"
"3245","Donato Delicatessen","52.0918451","4.3251909","den-haag","restaurant"
"6579","Grand Café D'n Ingel","50.8489412","5.6893728","maastricht","restaurant"
"1191","Paluco","52.09357","4.3244211","den-haag","restaurant"
"4797","THE BUTCHER Social Club","52.383627","4.9022672","amsterdam","restaurant_and_bar"
"6080","Dreams Surfcafé","52.0303534","4.1683804","ter-heijde","restaurant"
"4756","American Bar","52.07573960000001","4.3130461","den-haag","bar"
"6071","Cultureel Eetcafé 'Skek","52.376065","4.900175999999999","amsterdam","restaurant_and_bar"
"1701","Café De Beurs","51.4491667","6.052777799999999","horst","restaurant"
"458","DOK48 | FOOD & DRINKS AMSTERDAM","52.3528744","5.0053926","amsterdam","restaurant_and_bar"
"1500","Fortuyn","52.3816395","4.6368983","haarlem","restaurant"
"2716","Herberg D'n Brouwer Eten-drinken-slapen","51.697791","5.674878","zeeland","restaurant"
"3957","Lunchroom de Groene vlinder","51.4438541","4.9323705","baarle-nassau","restaurant"
"4657","Restaurant Proeflokaal 1574","52.1604196","4.4888169","leiden","restaurant_and_bar"
"1007","Steakhouse Daan","52.2636032","4.6351714","nieuw-vennep","restaurant"
"2537","Cafe Franklin","52.0783999","4.2771233","den-haag","restaurant_and_bar"
"4521","Café Het Wapen van Amstelveen","52.3018803","4.8464711","amstelveen","bar"
"887","Café Van Zanten","51.9232361","4.485169400000001","rotterdam","restaurant_and_bar"
"2266","De Hertogh Food and Drinks","52.2607593","5.607102499999999","putten","restaurant_and_bar"
"3044","Cafetaria De Overwinning","53.19842509999999","6.5601615","groningen","restaurant"
"664","Braai Westerpark","52.38505730000001","4.8749253","amsterdam","restaurant"
"983","Volle Maan","52.0876288","4.382728900000001","leidschendam","restaurant"
"3797","Café Den Engel","51.3388262","3.8221515","terneuzen","restaurant"
"4280","Het Veerkwartier","52.38750580000001","4.673423300000001","haarlem","restaurant_and_bar"
"6365","Bab Al Hara Restaurant","51.903995","4.497449","rotterdam","restaurant"
"2036","Lunchcafé van Drimmelen","52.2251377","5.1730711","hilversum","restaurant"
"5939","Café Postiljon","51.930965","4.4842083","rotterdam","restaurant_and_bar"
"3386","Het Wapen van Leeuwarden","53.1992965","5.7924786","leeuwarden","restaurant_and_bar"
"4186","Bar Gui","52.362353","4.8922402","amsterdam","restaurant"
"106","vandeStreek Oudegracht","52.0949677","5.1168673","utrecht","restaurant"
"2512","Madam Chen the cocktail queen","51.9204457","4.4895337","rotterdam","restaurant"
"1848","Brasserie LEF","51.962073","4.551879000000001","rotterdam","restaurant"
"635","Cannibale Royale","52.36804529999999","4.8903418","amsterdam","restaurant_and_bar"
"2108","Restaurant De Landbouw","51.50422289999999","3.8910091","goes","restaurant"
"3811","V.O.F. Café De Markies","51.495526","4.284720500000001","bergen-op-zoom","restaurant_and_bar"
"7139","O resto–bar","52.1857305","5.295711499999999","soest","restaurant"
"2676","Brasserie Restaurant Bolwerk","51.6895246","5.2988436","s-hertogenbosch","restaurant"
"4759","Loulou Pizzabar","52.3558049","4.9074459","amsterdam","restaurant"
"1729","Grand Café De Lindenhof","52.1856804","5.2956629","soest","restaurant_and_bar"
"4979","MILANO","52.3580177","6.592458899999999","wierden","restaurant"
"409","Asian Kitchen","52.3134561","4.9429877","amsterdam-zuidoost","restaurant"
"3311","Café Tante Greet","52.0895119","5.2379331","zeist","restaurant"
"1728","Restaurant Brass.","51.8762155","5.8537288","nijmegen","restaurant_and_bar"
"3708","Barista Cafe Lisse","52.2603778","4.559175","lisse","restaurant"
"1610","Brasserie Restaurant La Valeur","50.8650069","5.991471499999999","heerlen","restaurant"
"3750","Eetcafe Boulevard","51.9366667","4.4277778","rotterdam","restaurant"
"6556","De Tramhalte Maastricht","50.8443025","5.6793483","maastricht","restaurant_and_bar"
"210","YamYam Trattoria Pizzeria","52.376075","4.873432000000001","amsterdam","restaurant_and_bar"
"4796","Gastrobar 1677","50.99818699999999","5.870771899999998","sittard","restaurant_and_bar"
"3257","Wijnbar Buskens Nijmegen","51.8423537","5.8750875","nijmegen","restaurant_and_bar"
"4571","Bistro Madeleine","52.0898765","5.121566099999999","utrecht","restaurant_and_bar"
"4408","Café Américain","52.3638848","4.881504400000001","amsterdam","restaurant"
"2333","Het Lokaal","51.686593","5.130979","drunen","restaurant"
"2332","Grand-Café de Arcade","51.68656319999999","5.131218899999999","drunen","restaurant"
"350","Amstel Boathouse","52.3384361","4.9066227","amsterdam","restaurant"
"2137","Millers","52.079483","4.3164506","den-haag","restaurant_and_bar"
"2221","Grand Café Fanfare","52.7206408","6.090067100000001","giethoorn","restaurant"
"4626","Café de Laurierboom","52.3723","4.880949999999999","amsterdam","restaurant"
"4718","Mi Casa Su Casa","52.212658","5.282911","baarn","restaurant"
"1998","Eetcafe Aon 't Bat","50.7764969","5.6997146","eijsden","restaurant"
"1687","Koenraad Utrecht","52.09415749999999","5.1189184","utrecht","restaurant"
"2199","De Rede van Bataviahaven","52.51926419999999","5.4388933","lelystad","restaurant"
"1181","Restaurant Café Soesterdal","52.12575779999999","5.283289199999999","soesterberg","restaurant"
"2734","Banka Nunspeet","52.37598179999999","5.7842815","nunspeet","restaurant"
"1411","Beachclub Snake","53.0297208","5.7318842","offingawier","restaurant"
"5967","Louis","52.3769883","4.892479699999999","amsterdam","bar"
"3275","Café De Vijfhoek","52.3788164","4.6301557","haarlem","restaurant"
"868","Boes & Beis","52.3729223","4.838347300000001","amsterdam","restaurant"
"6347","LISA","51.88701500000001","4.487751","rotterdam","restaurant_and_bar"
"1361","Restaurant Luc Utrecht","52.0907342","5.116243599999999","utrecht","restaurant"
"4142","Eetcafe ’t Raedthuys","52.263518","7.006283","losser","restaurant_and_bar"
"297","Dopey's Elixer","52.3505556","4.8944444","amsterdam","restaurant_and_bar"
"1300","Sumventure Flightbar","52.10126870000001","5.121186300000001","utrecht","bar"
"6585","Café Enfin","50.8463331","5.692208","maastricht","restaurant"
"300","Visaandeschelde","52.34464200000001","4.8903855","amsterdam","restaurant"
"1936","Festina Lente","52.368653","4.8813896","amsterdam","restaurant_and_bar"
"6569","Hotel De la Bourse","50.85192399999999","5.691394","maastricht","restaurant_and_bar"
"1991","Vascobelo V-bar Nachtegaalstraat","52.0921067","5.1309118","utrecht","restaurant"
"4466","Café de Bakkerij","51.6451022","4.606423","zevenbergen","restaurant_and_bar"
"993","Massada","52.2713208","4.6202381","nieuw-vennep","restaurant"
"1698","Restaurant SAAM Hoek van Holland","51.97827909999999","4.1294358","hoek-van-holland","restaurant"
"6346","Het Witte Paard","51.8852425","4.5118091","rotterdam","restaurant_and_bar"
"5041","Van der Poel Enschede B.V.","52.2207999","6.896683","enschede","restaurant"
"2148","Proeflokaal Gorissen","50.9460364","5.9715384","brunssum","restaurant_and_bar"
"1993","De Waagh","51.8477643","5.863763","nijmegen","restaurant"
"816","'t Winckeltje","52.4947252","5.072379199999999","volendam","bar"
"4847","Bar Olaf","52.158384","4.4962176","leiden","bar"
"797","Nomad aan het IJ","52.3845012","4.8948274","amsterdam","restaurant"
"2939","Tapaseria Catalana Groningen","53.21568300000001","6.5698379","groningen","restaurant_and_bar"
"731","Café CHA CHA","52.3697768","4.892869800000001","amsterdam","restaurant_and_bar"
"3018","Groote Griet","53.2182476","6.568183899999999","groningen","bar"
"6486","Restaurant Stroming eten & drinken","52.6627781","4.8283287","heerhugowaard","restaurant"
"2986","SPAR city Groningen","53.21315419999999","6.565554499999998","groningen","restaurant"
"4445","Restaurant Ume Breda","51.58539099999999","4.7741997","breda","restaurant"
"1523","Broodjes Boutique","51.44193259999999","5.6190012","mierlo","restaurant"
"3427","Okawari Castricum","52.54645209999999","4.6619191","castricum","restaurant"
"1734","Melati Dua","51.5786514","5.004053099999999","tilburg","restaurant"
"407","Café Caron","52.3573827","4.888740699999999","amsterdam","restaurant"
"333","Café ""De Bult"" B.V.","52.391596","4.913067000000001","amsterdam","restaurant"
"6975","Vin Natuur Wine Bar & Wine Shop","53.22044609999999","6.5609576","groningen","restaurant_and_bar"
"639","Café Square '40-'45","52.3795107","4.8216162","amsterdam","restaurant"
"2160","Parkpaviljoen de Wezenlanden","52.5088475","6.1076828","zwolle","restaurant"
"2005","Het Dorrup Grill & Wijn","52.51035760000001","4.6707167","heemskerk","restaurant"
"7151","Salmon House","51.9068656","4.546008599999999","capelle-aan-den-ijssel","restaurant_and_bar"
"5482","restaurant SOBER","51.3472412","6.1419389","tegelen","restaurant"
"2113","Café De Barbier","52.39124810000001","6.4496626","hellendoorn","restaurant"
"1499","Restaurant De Hof","52.06293110000001","5.555089499999999","renswoude","restaurant"
"541","The Corner","52.34470169999999","4.890450800000001","amsterdam","restaurant_and_bar"
"74","Dok 19","51.58947870000001","4.7730543","breda","restaurant_and_bar"
"137","Café Fonteyn","52.3723585","4.9009087","amsterdam","restaurant_and_bar"
"405","Le Patron","52.36018799999999","4.891231999999999","amsterdam","bar"
"348","Casa Nostra","52.3555819","4.9030179","amsterdam","restaurant"
"1960","Mrs Park","51.4423626","5.399174199999999","eindhoven","restaurant"
"594","Ode aan de Amstel","52.3434384","4.914918000000001","amsterdam","restaurant_and_bar"
"4248","Brasserie Amuseer","50.8311722","5.8954477","wijlre","restaurant"
"4124","High Hill Beach","51.5633604","3.4888105","domburg","restaurant"
"5417","Jaimy's Steakhouse en Zaal de Ploeg","52.00671120000001","6.351428","zelhem","restaurant"
"1509","Willaerts","51.8225327","4.6819605","papendrecht","restaurant"
"4935","Brasserie Oranje Boven","52.0117506","4.3601919","delft","restaurant"
"771","Cafe de Walvis","52.3890116","4.880068","amsterdam","restaurant"
"2352","Café De Toerist","52.4136118","4.681197099999999","spaarndam","restaurant"
"302","Café Schinkelhaven","52.3545779","4.8552181","amsterdam","restaurant"
"6690","Restaurant & Bar Lagerhuys","52.3699951","4.8918463","amsterdam","restaurant_and_bar"
"4176","de Herbergier","50.85064759999999","5.867893","schin-op-geul","restaurant"
"242","Ristorante Pizzeria Piccolino","52.36362500000001","4.8852861","amsterdam","restaurant"
"1262","Three musketeers Hengelo","52.26601849999999","6.789761199999999","hengelo","bar"
"956","Sint Joris en de Draeck","52.0800267","4.288867199999999","den-haag","restaurant_and_bar"
"4579","Coffee Room.","52.3670472","4.8711194","amsterdam","restaurant"
"3155","De Bospub","52.8199124","6.3878463","dwingeloo","restaurant"
"1590","Het Praothuus","52.38813169999999","6.135276299999999","wijhe","bar"
"685","Vascobelo V-bar Stadionplein","52.3444444","4.8580556","amsterdam","restaurant_and_bar"
"4235","Ibiza","52.3542307","6.666866300000001","almelo","restaurant"
"3285","Coffeecompany","52.35489","4.900928","amsterdam","restaurant"
"2944","Bistro Boys","53.21540379999999","6.5652678","groningen","restaurant"
"3632","Grand Café Haagse Bluf","52.0778084","4.3089833","den-haag","restaurant"
"5385","Sterrebosch Wijchen","51.80753899999999","5.7270356","wijchen","restaurant"
"2370","Bar Bodega 't Zeepaardje","52.67080939999999","4.7009206","bergen","bar"
"4947","Harvey Amsterdam","52.3544733","4.941558199999999","amsterdam","restaurant"
"5958","Café Blossom - Breakfast - Lunch - High Tea & picknick","52.0858748","4.298467899999999","den-haag","restaurant"
"3635","De Zwaan","50.8508635","5.6914145","maastricht","restaurant_and_bar"
"5134","Bistronoom Woerden","52.0850873","4.8825064","woerden","restaurant_and_bar"
"3047","Doppio Groningen","53.2164715","6.56109","groningen","restaurant"
"445","Burger Bar De Pijp","52.35509899999999","4.893143999999999","amsterdam","restaurant"
"4485","Kaapse Will'ns B.V.","51.91593270000001","4.467437200000001","rotterdam","bar"
"1880","Trattoria Il Capo","51.9240145","4.511007800000001","rotterdam","restaurant"
"158","Eetbar de Stadt","51.68702949999999","5.3051959","s-hertogenbosch","restaurant"
"6019","Bar Wijnig","51.6867958","5.305481299999999","s-hertogenbosch","restaurant_and_bar"
"4446","Restaurant Red Apple","51.583263","4.776883000000001","breda","restaurant"
"3639","‘t Weurden","51.9695587","6.721544199999999","winterswijk","restaurant"
"1299","Jut&Jul | Gastrobar","51.4638743","5.7940535","deurne","restaurant_and_bar"
"80","Petit Café Anna et Fred","52.154421","4.486814700000001","leiden","restaurant"
"264","Cafe Schuim","52.3719981","4.889630299999999","amsterdam","restaurant_and_bar"
"2380","KROMME TOETER","50.8869734","5.9797714","heerlen","restaurant"
"3556","Sushi & more","51.6112753","5.1401347","udenhout","restaurant"
"1577","Café Prins Hendrik","51.97776599999999","4.129702","hoek-van-holland","restaurant"
"982","Tavern Old Sluys","52.080526","4.398542000000001","leidschendam","restaurant"
"4522","Bella Sardegna","53.1385155","6.430181999999999","roden","restaurant"
"530","Karavaan","52.3691073","4.8703603","amsterdam","restaurant"
"2082","Café de Koppelpaarden","52.9937487","6.560669199999999","assen","restaurant_and_bar"
"1332","Restaurant Joann","52.2201824","6.8909313","enschede","restaurant"
"1337","De Boterlap","52.3005218","5.6322332","ermelo","restaurant"
"2834","Restaurant Vuur","52.2022466","5.2476952","baarn","restaurant"
"1514","DRIES en CO","51.9192908","5.839494600000001","elst","restaurant"
"4489","Restaurant Den Herdenbergher","52.575777","6.621710999999999","hardenberg","restaurant"
"4980","Bar Bodega La Cave","52.5094106","5.4772303","lelystad","restaurant_and_bar"
"3597","LUNA Eten & Drinken Sittard","50.9976764","5.8710711","sittard","restaurant"
"389","Sapporo","52.344918","4.8911594","amsterdam","restaurant"
"1100","Peppel Food & Drinks","51.960145","4.473436299999999","rotterdam","restaurant_and_bar"
"122","Café ‘t Sluisje","52.39122739999999","4.9382201","amsterdam","restaurant"
"4323","Little V Rotterdam","51.9218977","4.484593500000001","rotterdam","restaurant"
"793","Anne&Max Amsterdam Zuid","52.3518944","4.856112","amsterdam","restaurant"
"1690","'t Lieve Vrouwtje","52.1557174","5.388226299999999","amersfoort","restaurant"
"4780","Taj Mahal","51.5896908","4.772104999999999","breda","restaurant_and_bar"
"2001","Grand Café De Walrus - Leeuwarden","53.2026663","5.796247000000001","leeuwarden","restaurant_and_bar"
"1623","Hemels","52.1555265","5.389870800000001","amersfoort","restaurant"
"5252","Bunk Restaurant Utrecht","52.09365829999999","5.111707399999999","utrecht","restaurant_and_bar"
"1129","'t Gat van Groningen","53.21840649999999","6.572098800000001","groningen","bar"
"5768","La Pizza Noord","51.9264137","4.460511100000001","rotterdam","restaurant"
"7143","Selbachs","51.8481682","5.8590103","nijmegen","bar"
"5807","Pizzeria De Palmboom","53.1723212","6.617889699999999","haren","restaurant"
"4050","Mooij Alkmaar","52.6311963","4.7433261","alkmaar","restaurant"
"6074","Goed Volck.","52.08454270000001","4.3133631","den-haag","restaurant"
"4957","Brasserie BOB & Co","51.6894189","5.2991237","s-hertogenbosch","restaurant"
"3076","Sushito Groningen","53.21943890000001","6.5670972","groningen","restaurant"
"4185","Martins Brasserie","52.2161914","5.960641699999999","apeldoorn","restaurant"
"6802","De Kurk","51.98415749999999","5.918886199999998","arnhem","bar"
"1893","The Blueberry Amersfoort-Noord","52.1865622","5.3960664","amersfoort","restaurant"
"4394","Restaurant De Proefstand","51.90114259999999","4.591525499999999","krimpen-aan-de-lek","restaurant"
"3428","La Trattoria","52.546309","4.661566","castricum","restaurant"
"1572","'Goed.' Proeven","51.98597580000001","5.916009","arnhem","restaurant"
"398","Bar Gallizia","52.3638896","4.9342495","amsterdam","restaurant_and_bar"
"2945","Cafetaria Sim","53.2232963","6.5600822","groningen","restaurant"
"1522","Café Du-pont","51.19473000000001","5.9842114","roermond","restaurant_and_bar"
"6550","Grenare Urban Bistro Bar","52.1603748","4.4890496","leiden","bar"
"3148","The Bull Amsterdam","52.375872","4.9076366","amsterdam","restaurant"
"1092","PILSVOGEL","52.3558443","4.8927777","amsterdam","restaurant"
"3765","Bambu Haarlem","52.381213","4.6354425","haarlem","restaurant"
"4805","Sherlock Pub & Restaurant","52.0930517","4.3077303","den-haag","restaurant_and_bar"
"7777","Piepers &Zo","51.2380085","5.8734264","baexem","restaurant"
"5349","Beniras Bar & Kitchen","52.15947480000001","4.486113400000001","leiden","restaurant"
"1996","De Kwizzenjèr","50.814977","5.729045","gronsveld","restaurant"
"6657","Cinema De Witt","51.814369","4.670366599999999","dordrecht","restaurant"
"6965","Eetcafé de Hoek","52.13187500000001","4.591059","koudekerk-aan-den-rijn","restaurant_and_bar"
"3142","Café Premier","52.0431835","5.668912600000001","ede","restaurant_and_bar"
"3739","Café Nieuw Amsterdam","52.3801803","4.8919698","amsterdam","restaurant_and_bar"
"4911","Waterloo","52.36842600000001","4.902717","amsterdam","restaurant"
"3698","Cafe Pursers","51.9193105","4.4843505","rotterdam","restaurant_and_bar"
"7621","Moser ski center","52.1795483","6.8303346","enschede","restaurant"
"6726","'t Zusje Maastricht","50.8499612","5.6870622","maastricht","restaurant_and_bar"
"2474","Kop Van de Haven B.V.","52.4632534","4.5834178","ijmuiden","restaurant_and_bar"
"3990","Restaurant Proeflokaal Sneek","53.0325943","5.6600184","sneek","restaurant"
"2329","Café Oud Zuid","51.658982","5.3003974","vught","restaurant"
"1660","Loetje","52.091748","5.121402","utrecht","restaurant"
"3242","Nieuwe Dikke Dries Oost","52.087415","5.144533","utrecht","restaurant"
"2449","De Burger","51.4367761","5.4785128","eindhoven","restaurant"
"478","De Nieuwe KHL","52.3740116","4.936323100000001","amsterdam","restaurant"
"5399","Dock 17","51.8495785","5.865636400000001","nijmegen","restaurant_and_bar"
"1286","Peter's Bistro","52.0998966","5.128008200000001","utrecht","restaurant"
"6322","Café CENC","52.3618829","4.8918912","amsterdam","restaurant"
"1967","Black Smoke Rotterdam","51.9249725","4.4313757","rotterdam","restaurant"
"3950","Restaurant Sukerieje","52.51399079999999","6.0902049","zwolle","restaurant"
"5414","Herberg 't Pannehûske","51.4702778","4.5922222","achtmaal","restaurant"
"1469","MarktZes","51.5634193","3.4970596","domburg","restaurant"
"258","Schumich Café","52.37946039999999","4.894210699999999","amsterdam","restaurant"
"223","Brasserie 't Siertje","52.3558959","4.8265023","amsterdam","restaurant"
"3840","Café Paviljoentje","51.8925964","4.4706222","rotterdam","restaurant"
"2178","Eleven","52.3581961","6.5904951","wierden","restaurant_and_bar"
"5228","Restaurant ""De Cuijt""","51.44778580000001","5.604306500000001","mierlo","restaurant"
"3595","Café Zomerlust","51.5593734","5.112907499999999","tilburg","bar"
"4099","Luus-Rotterdam","51.91334639999999","4.465373500000001","rotterdam","restaurant"
"410","Hendrix","52.370714","4.868592999999999","amsterdam","restaurant_and_bar"
"3548","Landgoed Bosch en Duin","51.6355623","5.1120147","udenhout","restaurant"
"2293","Grand café Chagall","51.5333135","4.4559441","roosendaal","restaurant"
"3476","Bistro 't Baeken","51.60195","4.104623","sint-annaland","restaurant_and_bar"
"6493","Brasserie de Kaoie","51.6468214","3.9255882","zierikzee","restaurant"
"3161","Restaurant ""De Bagatelle""","52.3822222","6.306666699999998","marienheem","restaurant"
"2582","Bistroclub de Stadsburger","51.4948904","4.2876162","bergen-op-zoom","restaurant"
"6944","Brunotti Beachclub","51.9327324","4.0797961","oostvoorne","restaurant"
"995","Café De Amstel","52.3486111","4.9030556","amsterdam","restaurant"
"5270","La Piazzetta di Lauro","52.09206160000001","4.2756169","den-haag","restaurant"
"1294","Kloek","52.0931429","5.112901","utrecht","restaurant_and_bar"
"3027","Le petit théâtre","53.2239812","6.5675721","groningen","bar"
"847","A-Fusion","52.49115949999999","5.0641645","volendam","restaurant"
"2146","De heren van de Rechter","52.7867435","6.1170083","steenwijk","restaurant"
"4942","De Waag","52.0112365","4.3579834","delft","restaurant_and_bar"
"6245","BAR PASTA","51.8358459","5.871195600000001","nijmegen","restaurant"
"7781","Rotterdam, Benthuizerstraat","51.93615399999999","4.479592999999999","netherlands","other"
"6110","Restaurant Wils*","52.34319850000001","4.8563632","amsterdam","restaurant"
"3258","Eatery Camelot","51.84754059999999","5.8645462","nijmegen","restaurant"
"2506","Café-Restaurant ""De Tapperij"" B.V.","52.088063","6.449493","ruurlo","restaurant_and_bar"
"4943","Teds","52.3653","4.8747893","amsterdam","restaurant"
"1005","Café Barrera","52.15708619999999","4.486110099999999","leiden","restaurant_and_bar"
"3310","Aan de Rijn","52.1574621","4.4930448","leiden","restaurant"
